MLocID,StationDes,Lat_DD,Long_DD,Eco3,COMID,rdden_km_km2,xings_km2,P_AgLand,P_Urban21Land,mines,grvl_mn_km2,P_canal,rd_Status,xing_Status,Ag_Status,Urb21L_Status,mines_status,gmines_status,canal_status,GIS.status_2020,WorE,Disturb.score,BPJ_final,Ref2020_FINAL,owner
10332-ORDEQ,Willamette River at SP&S RR Bridge (Portland),45.5776955,-122.7476333,WV,23815038,2.618139265,0.471266856,21.65402289,2.459554597,563,0.007613302,1.317936109,0,0,0,0,2,2,0,Trash,W,NA,NA,Trash,DEQ
10339-ORDEQ,Willamette River at Canby Ferry,45.29975496,-122.6921546,WV,23791411,2.487075193,0.454211786,22.74488639,2.111034719,459,0.007451524,1.416416882,0,0,0,0,2,2,0,Trash,W,NA,NA,Trash,DEQ
10344-ORDEQ,Willamette River at Wheatland Ferry,45.0902697,-123.0454481,WV,23791313,2.409858599,0.431544431,18.09284255,1.866951173,331,0.007458281,1.662502662,0,0,0,0,2,2,0,Trash,W,NA,NA,Trash,DEQ
10350-ORDEQ,Willamette River at Albany (eastbound Hwy 20 bridge),44.63926139,-123.1051462,WV,23762845,2.346173837,0.40253723,15.64705293,1.640274445,172,0.005981829,1.044672826,0,0,0,0,2,2,0,Trash,W,NA,NA,Trash,DEQ
10352-ORDEQ,Willamette River at Old Hwy 34 Bridge (Corvallis),44.56518006,-123.2565891,WV,23762877,2.325222628,0.394976354,12.43049629,1.577021826,135,0.0050829,0.895572764,0,0,0,1,2,2,0,Trash,W,NA,NA,Trash,DEQ
10355-ORDEQ,Willamette River at Hwy 99E (Harrisburg),44.2673838,-123.1745177,WV,23763337,2.182895648,0.353715771,4.087723907,1.031463743,77,0.003626692,0.643635917,0,0,0,1,2,0,0,Trash,W,NA,NA,Trash,DEQ
10359-ORDEQ,Willamette River at Hwy 126 (Springfield),44.04550141,-123.0280268,WV,23763441,2.37669974,0.403179532,4.216967665,1.016303038,49,0.002659997,0.236587461,0,0,0,1,2,0,0,Trash,W,NA,NA,Trash,DEQ
10363-ORDEQ,Yamhill River at Dayton,45.22310199,-123.0721362,WV,23796487,3.023286084,0.565518458,34.94970966,3.864253365,30,0.003699653,0.26357861,0,0,2,0,2,0,0,Trash,W,NA,NA,Trash,DEQ
10366-ORDEQ,South Santiam River Hwy 226 (Crabtree),44.630512,-122.9242867,WV,23785657,2.702528143,0.393923774,6.502193106,1.165604656,38,0.003777351,0.689935958,0,0,0,1,2,0,0,Trash,W,NA,NA,Trash,DEQ
10373-ORDEQ,Mary's River at 99W (Corvallis),44.55671743,-123.2642568,WV,23762881,3.248441803,0.703074169,24.76579749,4.998015472,10,0.00382799,0.448961996,0,0,0,0,0,0,0,NO,W,NA,NA,NO,DEQ
10376-ORDEQ,McKenzie River at Coburg Road,44.11219557,-123.0470094,WV,23772727,1.728089815,0.257579907,2.227742071,0.805756677,12,0.001177508,1.161782422,0,0,0,1,0,0,0,NO,W,NA,NA,NO,DEQ
10386-ORDEQ,Middle Fork Willamette River at Jasper Bridge,43.99841534,-122.9059819,WV,23751778,1.908290327,0.315235898,1.369782161,0.618771001,13,0.00143289,0,0,0,0,1,0,0,1,NO,W,NA,NA,NO,DEQ
10391-ORDEQ,Siletz R 5 miles DS of Siletz at RM 29.9,44.76428368,-123.91502,CoRa,23880866,3.345290265,0.559919181,2.152527362,5.2828201,6,0.003403764,0,0,0,0,0,0,0,1,NO,W,NA,NA,NO,DEQ
10393-ORDEQ,North Fork Coquille River at Hwy 42 (Myrtle Point),43.07848703,-124.1380947,CoRa,23914915,3.177750397,0.436880778,2.832350854,3.736426473,3,0.001340125,0,0,0,0,0,0,0,1,NO,W,NA,NA,NO,DEQ
103CDCHHR,Cedar Creek above Howland Hill Rd.,41.7889,-124.07784,CR,NA,0.449420754,0,0,0.000781151,0,0,0,1,1,1,1,1,1,1,Ref_GIS.candidate,E,14,Score,YES,DEQ
103KLCMSR,Kelly Creek ~0.7mi above MF Smith River,41.85546,-123.85215,KlMt,NA,0.090811432,0,0,0.594477777,0,0,0,1,1,1,1,1,1,1,Ref_GIS.candidate,E,2,Score,YES,DEQ
103PS0281,Bear Creek ~0.6mi above Diamond Cr.,41.95452,-123.91289,KlMt,22227360,0.225795693,0,0,0.587561579,0,0,0,1,1,1,1,1,1,1,Ref_GIS.candidate,W,2,Score,YES,DEQ
103STCNSR,Stony Creek ~0.2mi abobe NF Smith River,41.86198,-123.96086,KlMt,22227560,0.411562167,0.039248008,0,1.600248053,0,0,0,1,1,1,0,1,1,1,NO,W,2,Score,YES,DEQ
103WER026,Hardscrabble Creek above Coldwater Creek,41.8455182,-124.028345,KlMt,22226750,1.202012895,0.076307335,0,4.022569832,0,0,0,0,1,1,0,1,1,1,NO,W,1,Score,YES,DEQ
103WER029,Clarks Creek above Hwy 199,41.80977,-124.11209,CoRa,22226788,0,0,0,0.007281594,0,0,0,1,1,1,1,1,1,1,Ref_GIS.candidate,W,0,Score,YES,DEQ
103WER030,Eighteen Mile Creek above Old Gasquet Rd.,41.85649,-123.91194,KlMt,22227610,0.462288664,0,0,1.961777708,0,0,0,1,1,1,0,1,1,1,NO,W,1,Score,YES,DEQ
10404-ORDEQ,Umatilla River at Yoakum Bridge,45.67731022,-119.0363477,ColPl,23648048,1.234318953,0.241344521,22.99926958,1.907216964,35,0.00242253,0,0,0,0,0,2,0,1,Trash,E,NA,NA,Trash,DEQ
10405-ORDEQ,Umatilla River at Rieth Bridge,45.65753433,-118.8767931,ColPl,23648254,1.191309211,0.201838325,26.71728032,2.096580006,26,0.002955791,0,0,0,0,0,2,0,1,Trash,E,NA,NA,Trash,DEQ
10406-ORDEQ,Umatilla River at Hwy 11 (Pendleton),45.67470348,-118.7595036,ColPl,23648418,1.135690176,0.12301166,5.913807153,1.091046477,11,0.001744846,0,1,0,0,1,0,0,1,NO,E,NA,NA,NO,DEQ
10410-ORDEQ,Wallowa River at Minam,45.62082404,-117.7196786,BM,23436991,1.127175276,0.316829767,11.99832986,1.321016448,17,0.002418548,13.24769708,1,0,0,1,2,0,2,Trash,E,NA,NA,Trash,DEQ
10411-ORDEQ,Deschutes River at Deschutes River Park,45.63251478,-120.9125077,ColPl,23718703,1.810241809,0.336813273,3.585225802,1.253143621,297,0.003532872,6.574571431,0,0,0,1,2,0,2,Trash,E,NA,NA,Trash,DEQ
10418-ORDEQ,Rogue River at Robertson Bridge (Merlin),42.49646656,-123.4886101,KlMt,23940627,2.45443879,0.653396547,5.924288439,2.82434364,301,0.006075934,9.999084017,0,0,0,0,2,2,2,Trash,W,NA,NA,Trash,DEQ
10421-ORDEQ,Rogue River at Hwy 234 (north of Gold Hill),42.43238106,-123.0907077,KlMt,23930688,2.474952018,0.618014104,7.087483577,1.789615027,160,0.005615017,9.647181184,0,0,0,0,2,2,2,Trash,W,NA,NA,Trash,DEQ
10423-ORDEQ,Rogue River at Hwy 234 (Dodge Park),42.52496677,-122.8427653,KlMt,23923226,2.203483993,0.473723948,0.848109624,0.797514354,15,0,2.439282295,0,0,0,1,0,1,0,NO,W,NA,NA,NO,DEQ
10428-ORDEQ,Applegate River at Hwy 199 (near Wilderville),42.3974053,-123.4569766,KlMt,23935777,1.940432669,0.552143501,3.505630247,4.308142668,104,0.008603519,8.551253415,0,0,0,0,2,2,2,Trash,W,NA,NA,Trash,DEQ
10437-ORDEQ,Umpqua River at Elkton Bridge,43.63196317,-123.5671511,CoRa,24526798,2.486726815,0.391155033,6.724058222,2.037733636,145,0.00575998,1.001862446,0,0,0,0,2,2,0,Trash,W,NA,NA,Trash,DEQ
10441-ORDEQ,Elk Creek at Elkton,43.63527361,-123.564506,CoRa,24527092,3.500135385,0.559917365,8.479987205,3.543891552,13,0,0,0,0,0,0,0,1,1,NO,W,NA,NA,NO,DEQ
10442-ORDEQ,South Umpqua at Melrose Road,43.24178425,-123.4121303,KlMt,23900921,2.693786302,0.466252011,5.989991404,2.422058201,103,0.007869232,0.288862675,0,0,0,0,2,2,0,Trash,W,NA,NA,Trash,DEQ
10443-ORDEQ,South Umpqua at Hwy 42 (Winston),43.13391838,-123.3992438,KlMt,23900935,2.651104248,0.444313961,4.325033968,2.275112937,70,0.006141501,0.309365911,0,0,0,0,2,2,0,Trash,W,NA,NA,Trash,DEQ
10451-ORDEQ,North Umpqua at Garden Valley Road (Roseburg),43.27157828,-123.4107336,KlMt,23893934,1.983760165,0.299780468,3.280897738,0.817053552,21,0.00140742,2.320055209,0,0,0,1,2,0,0,Trash,W,NA,NA,Trash,DEQ
10456-ORDEQ,Tualatin River at Boones Ferry Road,45.38596892,-122.7571138,WV,23804850,3.689271188,0.720692554,28.31333457,5.383490561,38,0.006709318,2.002634699,0,0,0,0,2,2,0,Trash,W,NA,NA,Trash,DEQ
10458-ORDEQ,Tualatin River near Elsner Road,45.38836531,-122.8514638,WV,23804866,3.324531392,0.622411653,29.51817053,4.951346446,25,0.00123617,2.24441113,0,0,0,0,2,0,0,Trash,W,NA,NA,Trash,DEQ
10459-ORDEQ,Tualatin River at Hwy 210 (Scholls),45.41476586,-122.9207017,WV,23804868,3.346108053,0.632042439,28.81019133,4.995625849,25,0.001257796,2.281214237,0,0,0,0,2,0,0,Trash,W,NA,NA,Trash,DEQ
10461-ORDEQ,Tualatin River at Rood Road,45.48997521,-122.9514965,WV,23804938,2.650058147,0.468955513,28.174852,4.406454651,18,0.001636843,3.067974215,0,0,0,0,2,0,2,Trash,W,NA,NA,Trash,DEQ
10469-ORDEQ,Fanno Creek at Bonita Road (Tigard),45.41498209,-122.7542948,WV,23805272,10.11520227,2.567365437,1.524173269,11.20393688,1,0.013953073,0,2,2,0,2,0,2,1,Trash,W,NA,NA,Trash,DEQ
10480-ORDEQ,Beaverton Creek at Cornelius Pass Road,45.52086352,-122.9000204,WV,23804894,10.34082807,1.900204973,1.383719093,9.918973643,2,0,0,2,2,0,2,0,1,1,Trash,W,NA,NA,Trash,DEQ
10506-ORDEQ,Deschutes River at Hwy 26 (Warm Springs),44.76138,-121.2286117,BM,23719619,2.027500012,0.359807237,2.958975262,1.407646653,241,0.004768142,8.48641322,0,0,0,1,2,0,2,Trash,E,NA,NA,Trash,DEQ
10508-ORDEQ,Deschutes River at Lower Bridge,44.3597546,-121.2947875,BM,23700355,2.869524252,0.303158688,1.128908174,2.567111907,117,0.009624085,13.85082702,0,0,0,0,2,2,2,Trash,E,NA,NA,Trash,DEQ
10511-ORDEQ,Deschutes River at Mirror Pond (Drake Park-Bend),44.06035564,-121.3209114,EC,23700443,2.63972573,0.220246488,0.216200792,1.977040691,53,0.005660541,4.550781685,0,0,0,0,2,2,2,Trash,E,NA,NA,Trash,DEQ
10517-ORDEQ,Crooked River at Lone Pine Road (Terrebonne),44.34864903,-121.0816256,BM,23713938,1.549939424,0.367494438,2.42322163,0.740080857,91,0.002752767,4.84219783,0,0,0,1,2,0,2,Trash,E,NA,NA,Trash,DEQ
10521-ORDEQ,Necanicum R at Forest Lake RV Camp (Seaside),45.95191901,-123.9250156,CoRa,23871159,3.292620199,0.532964186,0.336924011,3.737295094,2,0,0,0,0,0,0,0,1,1,NO,W,NA,NA,NO,DEQ
10523-ORDEQ,Nestucca R at Cloverdale,45.20700786,-123.8898902,CoRa,23875659,2.747144064,0.398446125,1.824590733,3.787015339,4,0.001632976,0,0,0,0,0,0,0,1,NO,W,NA,NA,NO,DEQ
10533-ORDEQ,Sixes River at Hwy 101 bridge,42.81689039,-124.4822563,CoRa,23920600,1.567331707,0.129493938,0.512203733,2.493444338,9,0.009961072,0,0,0,0,0,0,2,1,Trash,W,NA,NA,Trash,DEQ
10537-ORDEQ,Winchuck River 1.3 miles upstream of Hwy 101,42.00832032,-124.1886369,CoRa,23949499,1.52064537,0.147975724,0.019819283,3.338120655,0,0,0,0,0,0,0,1,1,1,NO,W,NA,NA,NO,DEQ
10548-ORDEQ,Big Creek U/S Fish Hatchery (Lower Columbia),46.13482,-123.55353,CoRa,23832933,2.916758262,0.292803944,0,5.275975393,0,0,0,0,0,1,0,1,1,1,NO,W,NA,NA,NO,DEQ
10555-ORDEQ,Willamette River at Marion Street (Salem),44.94386485,-123.0452731,WV,23791091,2.384128209,0.41583259,17.07772164,1.760372543,299,0.006333557,1.340697267,0,0,0,0,2,2,0,Trash,W,NA,NA,Trash,DEQ
10588-ORDEQ,Deer Creek at mouth,44.53298927,-123.8806873,CoRa,23887126,0.825458825,0,0,0.056290021,0,0,0,1,1,1,1,1,1,1,Ref_GIS.candidate,W,23,Score,NO,DEQ
10596-ORDEQ,Coquille River at Sturdivant Park Dock (Coquille),43.17439981,-124.1993961,CoRa,23914467,2.944462328,0.43384742,2.883823773,4.213618783,30,0.004991533,0.156369392,0,0,0,0,2,2,0,Trash,W,NA,NA,Trash,DEQ
105BVCAGC,Burney Valley Creek above Granite Creek,41.61202,-123.29225,KlMt,NA,0,0,0,0.27617687,0,0,0,1,1,1,1,1,1,1,Ref_GIS.candidate,E,3,Score,YES,DEQ
105FC1297,Butler Creek ~1mi above Salmon R.,41.3286,-123.41992,KlMt,8257759,0.168765417,0,0,2.225310537,0,0,0,1,1,1,0,1,1,1,NO,W,1,Score,YES,DEQ
105FS0416,Elk Creek at Hummingbird Cr.,41.61411,-123.28187,KlMt,4439616,0.333706571,0.026644711,0,1.444783337,0,0,0,1,1,1,1,1,1,1,Ref_GIS.candidate,W,4,Score,YES,DEQ
105FS0425,"Salmon River, NF ~2.7mi above Sawyers Bar Rd.",41.35827,-123.07451,KlMt,8257711,0.535492421,0.08133156,0,1.579800612,0,0,0,1,1,1,1,1,1,1,Ref_GIS.candidate,W,3,Score,YES,DEQ
105FS0428,Bridge Creek above Wooley Cr.,41.44105,-123.35829,KlMt,8257399,0.184389498,0,0,3.782490463,0,0,0,1,1,1,0,1,1,1,NO,W,3,Score,YES,DEQ
105PS0083,Cherry Creek above Little North Fork Salmon R.,41.36469,-123.18717,KlMt,8257659,0.400844923,0.442145289,0,1.345170811,0,0,0,1,0,1,1,1,1,1,NO,W,13,Score,YES,DEQ
105PS0275,Shackleford Creek ~0.2mi below Long High Cr.,41.55216,-123.07014,KlMt,3798357,1.092704493,0.352925755,0,3.366211017,0,0,0,1,0,1,0,1,1,1,NO,W,3,Score,YES,DEQ
105TMCACC,Tenmile Creek above Clear Creek,41.73693,-123.54872,KlMt,NA,0.001491571,0,0,0.007256939,0,0,0,1,1,1,1,1,1,1,Ref_GIS.candidate,E,1,Score,YES,DEQ
105WLCABC,Wooley Creek ~0.5mi above Bridge Cr.,41.44225,-123.35041,KlMt,8257397,0.226756019,0.040061551,0.000360554,1.000591328,0,0,0,1,1,0,1,1,1,1,NO,W,3,Score,YES,DEQ
10602-ORDEQ,Little Butte Creek at Agate Road (White City),42.45527744,-122.8561347,KlMt,23922978,2.208241368,0.517314699,7.418827774,1.250604682,34,0.001036703,13.07003064,0,0,0,1,2,0,2,Trash,W,NA,NA,Trash,DEQ
10611-ORDEQ,Willamette River at Hawthorne Bridge,45.51333124,-122.6705734,WV,23815040,2.58706146,0.472665824,21.74717653,2.453435905,559,0.007543276,1.320675859,0,0,0,0,2,2,0,Trash,W,NA,NA,Trash,DEQ
10637-ORDEQ,Molalla River at Knights Bridge Road (Canby),45.26749645,-122.7103007,WV,23800828,2.96852968,0.496403266,15.90280864,1.621638626,38,0.006738506,0,0,0,0,0,2,2,1,Trash,W,NA,NA,Trash,DEQ
10640-ORDEQ,Pudding River at Hwy 211 (Woodburn),45.1504954,-122.7928998,WV,23800604,2.413239677,0.516850295,52.78357621,2.589701293,15,0.004875946,2.561878731,0,0,2,0,0,0,2,Trash,W,NA,NA,Trash,DEQ
10662-ORDEQ,McKenzie River at Hendricks Bridge,44.05581242,-122.8296546,WV,23772789,3.17709002,0.344851369,15.54949376,1.126692656,0,0,0,0,0,0,1,1,1,1,NO,W,NA,NA,NO,DEQ
10674-ORDEQ,Sandy River at Troutdale Bridge,45.53853195,-122.3768415,WV,23735731,1.27536722,0.260580833,3.120062655,1.644629206,14,0.002383361,0.817904477,0,0,0,0,0,0,0,NO,W,NA,NA,NO,DEQ
10681-ORDEQ,West Fork Hood River at mouth,45.60483973,-121.6333404,Ca,24504362,1.573548049,0.501431526,7.526376121,1.560278582,6,0,3.481968982,0,0,0,1,0,1,2,Trash,W,NA,NA,Trash,DEQ
10686-ORDEQ,Deschutes River at Harper Bridge (Sunriver),43.8632884,-121.452045,EC,23700411,2.565899848,0.20956125,0.230023822,1.564873388,27,0.003350543,4.255842248,0,0,0,1,2,0,2,Trash,E,NA,NA,Trash,DEQ
10688-ORDEQ,Deschutes River at Pringle Falls,43.74117494,-121.6067814,EC,23700501,1.91096628,0.133570775,0.001526565,0.802833852,1,0,0,0,0,0,1,0,1,1,NO,E,NA,NA,NO,DEQ
10690-ORDEQ,Metolius River north of Camp Sherman (Bridge 99),44.55651745,-121.6209269,EC,23700195,2.956758131,0.508659514,0.079217089,1.450209563,1,0.002365858,0,0,0,0,1,0,0,1,NO,E,NA,NA,NO,DEQ
10696-ORDEQ,Little Deschutes River at HWY 42 (Road 2114),43.82054348,-121.4513158,EC,23706180,2.66818962,0.245932227,0.297695709,1.575835323,25,0.004900823,6.323373124,0,0,0,1,2,2,2,Trash,E,NA,NA,Trash,DEQ
10719-ORDEQ,Grande Ronde River at Hwy 82 (North Elgin),45.56668293,-117.9111036,BM,23428452,2.244574111,0.462926407,13.73638409,1.10004037,37,0.003281227,6.64078826,0,0,0,1,2,0,2,Trash,E,NA,NA,Trash,DEQ
10720-ORDEQ,Grande Ronde River at Hilgard Park,45.34190983,-118.2364069,BM,23428594,2.658707883,0.496639641,0.123939763,0.521202168,5,0.000708473,0,0,0,0,1,0,0,1,NO,E,NA,NA,NO,DEQ
10728-ORDEQ,Willow Creek at RR Crossing (Vale),43.98800692,-117.2306332,SRP,24145066,1.32918382,0.451643614,8.031850037,1.455782032,21,0.005526229,8.721125766,0,0,0,1,2,2,2,Trash,E,NA,NA,Trash,DEQ
10729-ORDEQ,Owyhee River at Hwy 201 Bridge (Owyhee),43.78411284,-117.0555042,SRP,24542091,0.612758321,0.185187073,0.772097608,0.214895631,119,0.001099903,1.644429415,1,0,0,1,2,0,0,Trash,E,NA,NA,Trash,DEQ
10741-ORDEQ,Honey Creek at Plush,42.41902971,-119.9051597,NBR,24043079,1.361073106,0.387318635,0.015263327,0.104205197,0,0,8.901692198,0,0,0,1,1,1,2,Trash,E,NA,NA,Trash,DEQ
10743-ORDEQ,Chewaucan River at Paisley,42.69611896,-120.5450365,NBR,24035560,1.846518324,0.43365578,0.026418158,0.929006686,1,0,0.484174839,0,0,0,1,0,1,0,NO,E,NA,NA,NO,DEQ
10751-ORDEQ,Thomas Creek at Hwy 140,42.19318707,-120.3900968,EC,7915873,1.285495269,0.353937515,8.283303641,0.628449659,23,0.001776349,13.16326843,0,0,0,1,2,0,2,Trash,E,NA,NA,Trash,DEQ
10763-ORDEQ,Klamath Strait at USBR Pump Station F,42.07999454,-121.8430807,EC,2552667,1.786383392,0.617236103,77.68870227,1.385162305,2,0,99.99999955,0,0,2,1,0,1,2,Trash,E,NA,NA,Trash,DEQ
10764-ORDEQ,Klamath River downstream of Big Bend Powerhouse,42.08938322,-122.0720192,EC,358943,1.775051079,0.272112764,7.763643825,0.998056982,95,0.001105588,22.25275076,0,0,0,1,2,0,2,Trash,E,NA,NA,Trash,DEQ
10765-ORDEQ,Klamath River at Hwy 66 (Keno),42.12761231,-121.9283573,EC,2553639,1.746684157,0.270190093,7.986980736,0.969252299,93,0.001137642,22.70590423,0,0,0,1,2,0,2,Trash,E,NA,NA,Trash,DEQ
10768-ORDEQ,Link River at mouth (Klamath Falls),42.21850014,-121.7889116,EC,2553629,1.982266468,0.258945126,3.162624011,0.772937205,47,0.001126828,12.02355819,0,0,0,1,2,0,2,Trash,E,NA,NA,Trash,DEQ
10770-ORDEQ,Williamson River at Williamson River Store,42.51406806,-121.9169827,EC,24081505,2.135778031,0.280147998,0.904628771,0.594122566,30,0.000580919,5.167712378,0,0,0,1,2,0,2,Trash,E,NA,NA,Trash,DEQ
10792-ORDEQ,North Santiam River at Greens Bridge,44.70831959,-122.9725255,WV,23780883,1.920776517,0.32173235,7.201456538,1.193203273,23,0.003692011,2.545642447,0,0,0,1,2,0,0,Trash,W,NA,NA,Trash,DEQ
107GWCAPC,Godwood Creek ~0.2mi above Prarie Cr.,41.36789,-124.02434,CoRa,8315561,1.483513896,0.44694735,0,0,0,0,0,0,0,1,1,1,1,1,NO,W,4,Score,YES,DEQ
107WER092,Home Creek in Fern Canyon ~0.3mi above ocean bluffs,41.39996,-124.0579,CoRa,8315549,0.660665701,0.313873195,0,0,0,0,0,1,0,1,1,1,1,1,NO,W,3,Score,YES,DEQ
10801-ORDEQ,Swan Island Channel Midpoint,45.56586325,-122.7142955,WV,NA,7.429522672,0,0.112410925,2.999590651,0,0,0,2,1,0,0,1,1,1,Trash,W,NA,NA,Trash,DEQ
10812-ORDEQ,Skipanon River at Hwy 101,46.1385377,-123.9242428,CoRa,23832731,2.610697633,0.490007614,0.02035416,7.689906683,3,0.11307868,0,0,0,0,0,0,2,1,Trash,W,NA,NA,Trash,DEQ
10817-ORDEQ,Lewis & Clark River at Logan Road,46.07706389,-123.8448108,CoRa,23832763,2.594466607,0.396004487,0.678105023,3.882346202,0,0,0,0,0,0,0,1,1,1,NO,W,NA,NA,NO,DEQ
10856-ORDEQ,Johnson Creek at SE 122nd Avenue (Portland),45.47374354,-122.5357501,WV,23815064,4.594245441,1.286828912,28.3264685,13.54081709,2,0,0,0,0,0,2,0,1,1,Trash,W,NA,NA,Trash,DEQ
10869-ORDEQ,Tickle Creek at Deep Creek Road Bridge,45.403417,-122.360083,WV,23809570,4.006483373,1.20276154,40.66694329,7.044561283,0,0,0,0,0,2,0,1,1,1,Trash,W,NA,NA,Trash,DEQ
10917-ORDEQ,Pudding River at Hwy 99E (Aurora),45.23366042,-122.7501999,WV,23800594,2.442560544,0.531994653,51.74777599,2.480410436,20,0.003190373,1.648526974,0,0,2,0,2,0,0,Trash,W,NA,NA,Trash,DEQ
10929-ORDEQ,North Yamhill at Poverty Bend Road,45.25201536,-123.1741519,WV,23796501,3.342767237,0.536569138,35.57369369,3.559327775,8,0.006503868,0,0,0,2,0,0,2,1,Trash,W,NA,NA,Trash,DEQ
10948-ORDEQ,South Yamhill River at Hwy 99W (Mcminnville),45.16842228,-123.2078203,WV,23796633,2.828066566,0.53737944,31.77493701,3.687493165,16,0.002350056,0,0,0,2,0,2,0,1,Trash,W,NA,NA,Trash,DEQ
10996-ORDEQ,Calapooya Creek at Umpqua,43.36663162,-123.460813,KlMt,24526944,3.056716577,0.389786341,21.16478794,2.674340835,7,0.003143438,0,0,0,0,0,0,0,1,NO,W,NA,NA,NO,DEQ
10997-ORDEQ,Cow Creek at mouth,42.94294701,-123.3368795,KlMt,23901085,2.937234279,0.472424358,2.103836542,3.721417142,24,0.003872331,1.027952023,0,0,0,0,2,0,0,Trash,W,NA,NA,Trash,DEQ
11003-ORDEQ,Three Rivers at Hebo Bridge,45.22960146,-123.8618869,CoRa,23876269,2.061187803,0.328551877,0.399610499,3.378481454,1,0,0,0,0,0,0,0,1,1,NO,W,NA,NA,NO,DEQ
11017-ORDEQ,North Fork John Day River at Kimberly,44.75616347,-119.6385027,BM,23670625,1.943967022,0.451375656,0.1837608,0.928015854,58,0.000584873,0.555487248,0,0,0,1,2,0,0,Trash,E,NA,NA,Trash,DEQ
11020-ORDEQ,South Fork John Day River at Dayville,44.46564921,-119.5322996,BM,23821929,1.569625931,0.442534077,0.082029742,0.396711279,6,0,0,0,0,0,1,0,1,1,NO,E,NA,NA,NO,DEQ
11043-ORDEQ,Bully Creek at Hwy 20,43.9672501,-117.271947,SRP,24151739,1.043864368,0.317971577,3.096628132,0.886143918,7,0.00329846,4.458975655,1,0,0,1,0,0,2,Trash,E,NA,NA,Trash,DEQ
11051-ORDEQ,Bear Creek at Kirtland Road (Central Point),42.42683011,-122.9573795,KlMt,23930762,3.186703231,1.008192122,13.66317779,4.411638146,68,0.01603699,25.65785499,0,0,0,0,2,2,2,Trash,W,NA,NA,Trash,DEQ
11087-ORDEQ,Umatilla River at Cayuse Bridge,45.675768,-118.5561433,ColPl,23648454,1.104609447,0.103860383,1.058329833,0.655648091,8,0,0,1,1,0,1,0,1,1,NO,E,NA,NA,NO,DEQ
11140-ORDEQ,Long Tom River at Stow Pit Road (Monroe),44.34277935,-123.2954319,WV,23763073,3.38133942,0.587996547,29.84940541,3.452794469,17,0.003818159,3.545122122,0,0,0,0,2,0,2,Trash,W,NA,NA,Trash,DEQ
11180-ORDEQ,Calapooia River at Queen Road,44.61969873,-123.1284091,WV,23763521,2.383030957,0.457543131,47.15867388,1.618525498,27,0.008356952,2.349536948,0,0,2,0,2,2,0,Trash,W,NA,NA,Trash,DEQ
11201-ORDEQ,Columbia Slough at Landfill Road,45.61069632,-122.7546895,WV,23815092,10.36045261,0.494399489,1.486633142,6.976236788,7,0.080483638,5.750229718,2,0,0,0,0,2,2,Trash,W,NA,NA,Trash,DEQ
11233-ORDEQ,Clackamas River at High Rocks (Old Hwy 213),45.37995144,-122.5818003,WV,23809000,1.843091747,0.369405128,7.425345369,1.861380172,45,0.004925402,0,0,0,0,0,2,2,1,Trash,W,NA,NA,Trash,DEQ
11241-ORDEQ,Salmon River at Old Scenic Hwy 101 (Otis),45.02313699,-123.9466994,CoRa,23881230,3.659796015,0.708849037,0.889951517,4.800296703,3,0,0,0,0,0,0,0,1,1,NO,W,NA,NA,NO,DEQ
11263-ORDEQ,Alsea River at Thissell Road (Mike Bauer Park),44.38633782,-123.8312376,CoRa,23886298,2.456090616,0.338356409,2.393128154,4.176184984,5,0,0,0,0,0,0,0,1,1,NO,W,NA,NA,NO,DEQ
11275-ORDEQ,Coast Fork Willamette at Mt. Pisgah Park,44.0122996,-122.9835402,WV,23759226,3.292042469,0.585536311,8.357956164,1.710606889,30,0.004123495,0.705138065,0,0,0,0,2,0,0,Trash,W,NA,NA,Trash,DEQ
11321-ORDEQ,Johnson Creek at SE 17th Avenue (Portland),45.44669361,-122.6431333,WV,23815062,7.58158783,1.179703496,16.59830444,10.293058,6,0.029492587,0,2,0,0,2,0,2,1,Trash,W,NA,NA,Trash,DEQ
11325-ORDEQ,Johnson Creek at Foster Road (Portland),45.47732649,-122.5131832,WV,23815066,4.62661192,1.306053843,30.34182298,13.12982567,2,0,0,0,0,2,2,0,1,1,Trash,W,NA,NA,Trash,DEQ
11386-ORDEQ,John Day River at Hwy 206,45.47702986,-120.4695298,ColPl,23685566,1.50002507,0.362754369,1.799416079,0.891415337,137,0.000725174,0.779474354,0,0,0,1,2,0,0,Trash,E,NA,NA,Trash,DEQ
11434-ORDEQ,Clatskanie River at Hwy 30 (Clatskanie),46.10202678,-123.1994557,CoRa,24520350,3.388971045,0.533294798,1.890513563,4.771717438,9,0,0,0,0,0,0,0,1,1,NO,W,NA,NA,NO,DEQ
11457-ORDEQ,Minam River at Minam,45.61966179,-117.7278643,BM,23436993,0.286094025,0.033956335,0.019357185,0.160084203,2,0,0,1,1,0,1,0,1,1,NO,E,NA,NA,NO,DEQ
11476-ORDEQ,Yaquina River at Trapp Road (Chitwood),44.65756552,-123.8389062,CoRa,23880730,3.289427271,0.671993444,3.472997576,3.645574406,1,0,0,0,0,0,0,0,1,1,NO,W,NA,NA,NO,DEQ
11477-ORDEQ,Crooked River at Conant Basin Road,44.17240351,-120.5421731,BM,24515622,1.37446352,0.342279613,0.966910252,0.200194805,32,0.001238221,0,0,0,0,1,2,0,1,Trash,E,NA,NA,Trash,DEQ
11478-ORDEQ,John Day River at Service Creek,44.79220442,-120.0037361,BM,23686204,1.682112097,0.407080394,0.213159857,0.962653935,114,0.000902951,0.982566654,0,0,0,1,2,0,0,Trash,E,NA,NA,Trash,DEQ
11479-ORDEQ,John Day River upstream of Dayville,44.46598737,-119.4714567,BM,23822337,1.481102199,0.391229929,0.239667346,1.33710404,38,0.002817499,3.533722286,0,0,0,1,2,0,2,Trash,E,NA,NA,Trash,DEQ
11480-ORDEQ,Malheur River near Little Valley,43.89794521,-117.5073833,SRP,24143224,1.101077935,0.299222494,0.691937913,0.290576364,44,0.001407203,2.048496378,1,0,0,1,2,0,0,Trash,E,NA,NA,Trash,DEQ
11482-ORDEQ,Illinois River downstream of Kerby,42.24564278,-123.6891897,KlMt,23945075,1.877650084,0.367787404,2.967490499,4.023333689,45,0.007247042,2.059888043,0,0,0,0,2,2,0,Trash,W,NA,NA,Trash,DEQ
11483-ORDEQ,Chetco River at USGS Gage (10 miles upstream of Brookings),42.1242675,-124.1870937,CoRa,23949601,0.734816426,0.059788281,0.020230818,1.428733663,15,0,0,1,1,0,1,0,1,1,NO,W,NA,NA,NO,DEQ
11484-ORDEQ,South Umpqua at Days Creek Cutoff Road (Canyonville),42.97121856,-123.2138782,KlMt,23901449,2.25767814,0.341839486,1.181537303,0.329636382,7,0.001695072,0,0,0,0,1,0,0,1,NO,W,NA,NA,NO,DEQ
11485-ORDEQ,Middle Fork Coquille River at River Mile 0.2 at Hwy 42 (Hoffman State Park),43.03287861,-124.1143736,CoRa,23914697,3.134349777,0.463477068,2.388906409,4.281674433,5,0.001252641,0,0,0,0,0,0,0,1,NO,W,NA,NA,NO,DEQ
11486-ORDEQ,South Fork Coquille River at Broadbent,43.00837515,-124.1508795,CoRa,23914533,2.364315892,0.326866738,1.900310036,4.50038292,17,0.013009621,0,0,0,0,0,2,2,1,Trash,W,NA,NA,Trash,DEQ
11489-ORDEQ,Umatilla River at Westland Road (Hermiston),45.83561316,-119.3329256,ColPl,23647736,1.167932259,0.252613943,26.26018938,1.966333509,44,0.002391829,3.008565919,1,0,0,0,2,0,2,Trash,E,NA,NA,Trash,DEQ
11490-ORDEQ,Powder River at Hwy 7 (in Baker City),44.78181642,-117.8276589,BM,24208311,2.611886277,0.809580195,0.799274287,1.143968453,29,0.00554507,6.762190831,0,0,0,1,2,2,2,Trash,E,NA,NA,Trash,DEQ
11493-ORDEQ,Pistol River at Pistol River Loop Road,42.27189367,-124.3970708,CoRa,23949869,1.790917489,0.116933653,0.291505935,3.411221095,1,0.003772053,0,0,0,0,0,0,0,1,NO,W,NA,NA,NO,DEQ
11494-ORDEQ,Burnt River at Snake River Road (Huntington),44.35672116,-117.2528911,BM,24199889,1.902020582,0.572101309,1.27307391,1.086054185,45,0.001758148,6.663655045,0,0,0,1,2,0,2,Trash,E,NA,NA,Trash,DEQ
11521-ORDEQ,Grande Ronde River at Peach Lane (Island City),45.34964586,-117.9633218,BM,23428536,2.526274896,0.480215839,3.258327916,0.603378312,14,0.00106478,1.45282356,0,0,0,1,0,0,0,NO,E,NA,NA,NO,DEQ
11522-ORDEQ,South Umpqua at Stewart Park Road (Roseburg),43.21745899,-123.3665207,KlMt,23900925,2.66690959,0.457312222,5.883487645,2.327516665,97,0.007724869,0.291377671,0,0,0,0,2,2,0,Trash,W,NA,NA,Trash,DEQ
11625-ORDEQ,Johnson Creek at 82nd Avenue (Portland),45.46340608,-122.5790679,WV,23815064,6.59514684,1.011012257,19.35133191,10.94704689,3,0.00864113,0,2,0,0,2,0,2,1,Trash,W,NA,NA,Trash,DEQ
11769-ORDEQ,Bear Creek at River Mile 1.80,45.30650659,-123.5906423,CoRa,23876129,3.66774033,0.154923468,0,6.042018433,0,0,0,0,0,1,0,1,1,1,NO,W,NA,NA,NO,DEQ
11770-ORDEQ,Bear Creek at River Mile 0.15,45.27307275,-123.5733001,CoRa,23876129,3.13355686,0.063081135,0,5.300433731,0,0,0,0,1,1,0,1,1,1,NO,W,NA,NA,NO,DEQ
11774-ORDEQ,Powder Creek at River Mile 1.45,45.24304899,-123.6777769,CoRa,23876235,0.030665977,0,0,0.070677436,0,0,0,1,1,1,1,1,1,1,Ref_GIS.candidate,W,5,Score,YES,DEQ
11775-ORDEQ,Powder Creek at River Mile 0.95,45.24398051,-123.6717216,CoRa,23876235,0.341750059,0.078818976,0.052783787,1.038004144,0,0,0,1,1,0,1,1,1,1,NO,W,12,Score,YES,DEQ
11776-ORDEQ,Crooked River at Cobble Rock Recreation Area,44.12689574,-120.8103916,BM,23713966,1.383315142,0.334441643,0.853599837,0.261844941,38,0.001390931,0,0,0,0,1,2,0,1,Trash,E,NA,NA,Trash,DEQ
11842-ORDEQ,Clear Creek upstream of Thomas Creek,45.56578303,-123.2388109,WV,23805082,3.004745763,0.324791322,0.009672704,6.017414951,1,0,0,0,0,0,0,0,1,1,NO,W,NA,NA,NO,DEQ
11843-ORDEQ,Lousignont Creek at River Mile 7.0,45.733477,-123.3394012,CoRa,23872813,2.611037853,0,0,4.647637528,0,0,0,0,1,1,0,1,1,1,NO,W,NA,NA,NO,DEQ
11844-ORDEQ,East Foley Creek at River Mile 2.5,45.66669265,-123.8119203,CoRa,23872943,1.62907781,0,0,3.414412745,0,0,0,0,1,1,0,1,1,1,NO,W,NA,NA,NO,DEQ
11845-ORDEQ,Little North Fork Wilson River at River Mile 1.5,45.48172052,-123.7335653,CoRa,23876015,1.787471744,0.059778937,0.034016706,2.988695476,0,0,0,0,1,0,0,1,1,1,NO,W,NA,NA,NO,DEQ
11846-ORDEQ,Neskowin Creek upstream of Hwy 12,45.05788652,-123.8939019,CoRa,23877179,2.633413687,0.750800307,0,4.061542133,0,0,0,0,0,1,0,1,1,1,NO,W,NA,NA,NO,DEQ
11847-ORDEQ,Deer Creek upstream of Experimental Forest HQ,45.03448537,-123.908469,CoRa,23881202,2.391354569,0,0,7.870567572,0,0,0,0,1,1,0,1,1,1,NO,W,NA,NA,NO,DEQ
11848-ORDEQ,East Creek upstream of East Creek Road (Third Crossing),45.31210433,-123.6639653,CoRa,23876771,2.95433479,0.141039745,0,5.497462458,0,0,0,0,0,1,0,1,1,1,NO,W,NA,NA,NO,DEQ
11849-ORDEQ,Salmonberry River at mouth,45.75005517,-123.6531171,CoRa,23871911,2.169877915,0.124689226,0.002439572,3.899079329,1,0,0,0,0,0,0,0,1,1,NO,W,NA,NA,NO,DEQ
11850-ORDEQ,Rock Creek at River Mile 1.5,44.18771584,-124.0912292,CoRa,23886156,0.534895303,0,0,2.053354459,0,0,0,1,1,1,0,1,1,1,NO,W,4.5,Score,YES,DEQ
11851-ORDEQ,Tenmile Creek 300 meters upstream of campground,44.21266777,-124.0071061,CoRa,23886166,0.992776304,0.085131741,0.056977066,4.208939363,0,0,0,1,1,0,0,1,1,1,NO,W,NA,NA,NO,DEQ
11852-ORDEQ,Cummins Creek downstream of trailhead,44.26740166,-124.1001913,CoRa,23886182,0.328250036,0,0,1.863016566,0,0,0,1,1,1,0,1,1,1,NO,W,5,Score,YES,DEQ
11853-ORDEQ,Peak Creek at River Mile 3.5,44.35599992,-123.4852274,CoRa,23886926,3.576522161,0.197941409,0,6.032432376,0,0,0,0,0,1,0,1,1,1,NO,W,NA,NA,NO,DEQ
11854-ORDEQ,Fish Creek at River Mile 2.5,44.1419318,-123.5406273,CoRa,23889766,3.382993063,0.279735929,0,7.132556078,0,0,0,0,0,1,0,1,1,1,NO,W,NA,NA,NO,DEQ
11855-ORDEQ,Greenleaf Creek at River Mile 4.0,44.1693197,-123.6380084,CoRa,23889934,2.421037849,0.062806575,0,5.025746964,0,0,0,0,1,1,0,1,1,1,NO,W,NA,NA,NO,DEQ
11856-ORDEQ,Nehalem River at Foley Road (Roy Creek Campground),45.69975923,-123.8441202,CoRa,23871859,2.690648943,0.302020593,1.752123697,4.195604119,32,0.00215729,0,0,0,0,0,2,0,1,Trash,W,NA,NA,Trash,DEQ
11904-ORDEQ,Klaskanine River at Youngs River Loop Road (Olney),46.09154027,-123.7522621,CoRa,23832855,3.255792107,0.43263054,0.878629661,4.353579983,5,0,0,0,0,0,0,0,1,1,NO,W,NA,NA,NO,DEQ
11905-ORDEQ,Elk River at Hwy 101,42.79401881,-124.4889754,CoRa,23920492,1.286561261,0.125579685,1.076455583,2.859007013,1,0,0,0,0,0,0,0,1,1,NO,W,NA,NA,NO,DEQ
11943-ORDEQ,Willamette River 0.5 miles downstream of I-5 (Wilsonvlle),45.293111,-122.759889,WV,23791277,2.464991547,0.447186884,21.08410742,2.082259498,397,0.007596503,1.470218714,0,0,0,0,2,2,0,Trash,W,NA,NA,Trash,DEQ
11968-ORDEQ,McGuire Creek upstream of Diamond-Odell Plant (discharge #2),45.62602836,-121.5439729,EC,NA,3.327748135,0,70.37017055,7.541576684,0,0,0,0,1,2,0,1,1,1,Trash,E,NA,NA,Trash,DEQ
11969-ORDEQ,McGuire Creek downstream of Diamond-Odell discharge #2 & downstream of RR tracks,45.62696701,-121.5447569,EC,NA,3.599356067,0,66.58670365,7.685566246,0,0,0,0,1,2,0,1,1,1,Trash,E,NA,NA,Trash,DEQ
11970-ORDEQ,Neal Creek downstream of Lenz Creek at RR bridge,45.64578482,-121.5147361,EC,24505130,2.194477571,0.69770687,15.152078,0.869169721,0,0,13.11747455,0,0,0,1,1,1,2,Trash,E,NA,NA,Trash,DEQ
11971-ORDEQ,Neal Creek upstream of Lenz Creek confluence,45.64448073,-121.5144716,EC,24505134,2.191872925,0.698543537,15.07209367,0.860903912,0,0,13.14652793,0,0,0,1,1,1,2,Trash,E,NA,NA,Trash,DEQ
11972-ORDEQ,Lenz Creek at mouth,45.6446144,-121.5147318,EC,24506306,2.192012023,0.69823463,15.10632898,0.861411905,0,0,13.13854286,0,0,0,1,1,1,2,Trash,E,NA,NA,Trash,DEQ
12005-ORDEQ,McKay Creek at Kirk Road (Pendleton),45.65429575,-118.8239942,ColPl,23648272,1.150522783,0.153885142,6.784538402,1.733137879,3,0,0,1,0,0,0,0,1,1,NO,E,NA,NA,NO,DEQ
12012-ORDEQ,Hood River at footbridge downstream of I-84,45.7109772,-121.5079961,EC,24504330,1.831200112,0.521262621,9.962146176,1.750572601,12,0.002276256,4.064214751,0,0,0,0,0,0,2,Trash,E,NA,NA,Trash,DEQ
12022-ORDEQ,Wildhorse Creek near Mansfield Road (Athena),45.79750123,-118.5265325,ColPl,23648730,1.310799588,0.335632415,62.57086763,4.189788706,1,0,0,0,0,2,0,0,1,1,Trash,E,NA,NA,Trash,DEQ
12026-ORDEQ,Umatilla River at Hwy 320 (Echo),45.74217306,-119.1990128,ColPl,23647964,1.201927118,0.24433586,24.01173916,1.917664045,36,0.002484771,0.404015811,0,0,0,0,2,0,0,Trash,E,NA,NA,Trash,DEQ
12053-ORDEQ,McCoy Creek Lower #1 (Transect 1),45.26244799,-118.402497,BM,23428650,2.64023936,0.420656971,0.035829492,0,0,0,0,0,0,0,1,1,1,1,NO,E,NA,NA,NO,DEQ
12054-ORDEQ,McCoy Creek Lower #2 (Transect 1),45.26278528,-118.4042877,BM,23428650,2.641578174,0.420870278,0.035847661,0,0,0,0,0,0,0,1,1,1,1,NO,E,NA,NA,NO,DEQ
12055-ORDEQ,McCoy Creek Middle (Transect 1),45.26978011,-118.4286742,BM,23428662,2.685525119,0.410007126,0,0,0,0,0,0,0,1,1,1,1,1,NO,E,NA,NA,NO,DEQ
12056-ORDEQ,McCoy Creek Upper (Transect 1),45.33941714,-118.546096,BM,23428694,2.292848177,0.2741679,0,0,0,0,0,0,0,1,1,1,1,1,NO,E,NA,NA,NO,DEQ
12057-ORDEQ,Meadow Creek Lower (Transect 1),45.26081999,-118.4016861,BM,23428706,2.84481134,0.51251369,0,0.421694019,1,0.003713867,0,0,0,1,1,0,0,1,NO,E,NA,NA,NO,DEQ
12058-ORDEQ,Meadow Creek Starkey (Transect 1),45.26970385,-118.5295524,BM,23428722,2.948963297,0.464402743,0,0,0,0,0,0,0,1,1,1,1,1,NO,E,NA,NA,NO,DEQ
12059-ORDEQ,Dark Canyon Creek Lower (Transect 1),45.27366563,-118.3825715,BM,23430124,3.277796871,0.472778251,0,0.405516716,0,0,0,0,0,1,1,1,1,1,NO,E,NA,NA,NO,DEQ
12060-ORDEQ,Dark Canyon Creek Upper (Transect 1),45.3139,-118.4030245,BM,23429980,3.356598223,0.524480109,0,0,0,0,0,0,0,1,1,1,1,1,NO,E,NA,NA,NO,DEQ
12091-ORDEQ,North Fork Smith River upstream of Chrome Creek,42.04419952,-123.983618,KlMt,22226490,0.714375096,0,0,1.482906006,0,0,0,1,1,1,1,1,1,1,Ref_GIS.candidate,W,20,Score,NO,DEQ
12092-ORDEQ,Horse Sign Creek downstream of Pine Flat Creek,42.45842568,-124.04997,KlMt,23945549,0.153643918,0,0,0.465740179,0,0,0,1,1,1,1,1,1,1,Ref_GIS.candidate,W,2,Score,YES,DEQ
12093-ORDEQ,Camas Creek upstream of Camas Creek Road (Lower Site),43.14890213,-123.8245707,CoRa,23915139,3.202423643,0.382207212,0.007147585,4.367635656,0,0,0,0,0,0,0,1,1,1,NO,W,NA,NA,NO,DEQ
12094-ORDEQ,Whittaker Creek upstream of Whittaker Creek Road,43.95898791,-123.6902548,CoRa,23889560,2.497422124,0.386723239,0,2.228909121,0,0,0,0,0,1,0,1,1,1,NO,W,NA,NA,NO,DEQ
12095-ORDEQ,East Fork Winchuck River upstream of Wheeler Creek Road,42.04829847,-124.0903067,KlMt,23949533,0.512025084,0.029774931,0,1.407931336,0,0,0,1,1,1,1,1,1,1,Ref_GIS.candidate,W,7,N,NO,DEQ
12096-ORDEQ,Windy Creek upstream of USFS Road #1376,42.32673985,-124.1506785,KlMt,23950037,0.981921809,0,0,2.284218161,0,0,0,1,1,1,0,1,1,1,NO,W,2,Score,YES,DEQ
12097-ORDEQ,Lawsen Creek west of USFS Trail #1173,42.48715356,-124.0885257,KlMt,23944947,1.357981464,0.04870037,0,2.456871627,5,0,0,0,1,1,0,0,1,1,NO,W,NA,NA,NO,DEQ
12098-ORDEQ,Shasta Costa Creek south of USFS Road #23,42.57102321,-124.0401086,KlMt,23940973,0.931530638,0.032575943,0,1.644177605,0,0,0,1,1,1,0,1,1,1,NO,W,NA,NA,NO,DEQ
12099-ORDEQ,Quosatana Creek upstream of USFS Road #33,42.48732787,-124.2319717,CoRa,23940199,1.509394168,0.064550632,0,4.004547108,1,0,0,0,1,1,0,0,1,1,NO,W,NA,NA,NO,DEQ
12100-ORDEQ,Palouse Creek upstream of Old Beaver Dam (River Mile 6.7),43.5162392,-124.109987,CoRa,23910111,1.463748991,0.101796712,0,1.78956648,0,0,0,0,1,1,0,1,1,1,NO,W,NA,NA,NO,DEQ
12133-ORDEQ,Franklin Creek at River Mile 1.0,43.66937707,-123.9060814,CoRa,24527278,0.537887552,0,0,0.968521764,0,0,0,1,1,1,1,1,1,1,Ref_GIS.candidate,W,3,Score,YES,DEQ
12134-ORDEQ,Harvey Creek at River Mile 0.5,43.69030313,-123.9451602,CoRa,24528136,0.486435844,0,0,1.256394958,0,0,0,1,1,1,1,1,1,1,Ref_GIS.candidate,W,20,Score,NO,DEQ
12135-ORDEQ,"Camas Creek at upper site, River Mile 3.6",43.11990414,-123.8030532,CoRa,23915143,3.173168031,0.451142585,0,4.79155501,0,0,0,0,0,1,0,1,1,1,NO,W,NA,NA,NO,DEQ
12136-ORDEQ,Bachelor Creek at River Mile 2.6,43.47607473,-123.2362468,KlMt,24527042,2.296423088,0.344665851,12.19569677,3.178677833,2,0,0,0,0,0,0,0,1,1,NO,W,NA,NA,NO,DEQ
12137-ORDEQ,Yellow Creek at River Mile 3.9,43.51360967,-123.4301485,CoRa,24527086,2.520877183,0.204496468,0,2.920046255,0,0,0,0,0,1,0,1,1,1,NO,W,NA,NA,NO,DEQ
12138-ORDEQ,Haskins Creek at River Mile 0.1,43.89657873,-123.5907401,CoRa,23890478,1.274681114,0,0,0.453215941,0,0,0,0,1,1,1,1,1,1,NO,W,4,Score,YES,DEQ
12139-ORDEQ,Hawley Creek 2 miles up Hawley Creek Road,43.85620257,-123.1986622,WV,23889778,3.807770217,0.245116062,0.111572925,3.692375451,1,0,0,0,0,0,0,0,1,1,NO,W,NA,NA,NO,DEQ
12181-ORDEQ,Lookout Creek (Transect 1),45.09122399,-118.5330255,BM,23430670,1.027736455,0.103253518,0,0,0,0,0,1,1,1,1,1,1,1,Ref_GIS.candidate,E,3,Score,YES,DEQ
12182-ORDEQ,Limber Jim Creek Upper (Transect 1),45.10744297,-118.2985089,BM,23428902,2.193556054,0.521737481,0,0,0,0,0,0,0,1,1,1,1,1,NO,E,25,Score,NO,DEQ
12183-ORDEQ,Limber Jim Creek Lower (Transect 1),45.10252813,-118.3306004,BM,23428900,2.464815893,0.416136093,0,0,0,0,0,0,0,1,1,1,1,1,NO,E,NA,NA,NO,DEQ
12187-ORDEQ,Youngs River at Youngs River Loop Road,46.06976248,-123.7856582,CoRa,23832825,3.019111556,0.474998134,0.200072282,5.700429305,0,0,0,0,0,0,0,1,1,1,NO,W,NA,NA,NO,DEQ
12205-ORDEQ,Truax Creek at Teledyne (upstream of Murder Creek),44.66237842,-123.0758697,WV,23764545,1.565762299,0.84339863,82.33194951,2.811893599,0,0,6.889490891,0,0,2,0,1,1,2,Trash,W,NA,NA,Trash,DEQ
12215-ORDEQ,Roaring Creek 300 feet upstream of city water intake,45.567306,-123.253833,WV,23805614,3.028693412,0.116006589,0,6.111018659,0,0,0,0,0,1,0,1,1,1,NO,W,NA,NA,NO,DEQ
12219-ORDEQ,McCoy Creek Middle (Transect 6),45.27140159,-118.4325253,BM,23428662,2.689097379,0.410552513,0,0,0,0,0,0,0,1,1,1,1,1,NO,E,NA,NA,NO,DEQ
12221-ORDEQ,Dark Canyon Creek Lower (Transect 6),45.2779064,-118.3815964,BM,23430124,3.338216231,0.467970603,0,0.377925262,0,0,0,0,0,1,1,1,1,1,NO,E,NA,NA,NO,DEQ
12228-ORDEQ,Dark Canyon Creek upstream of Upper Bio Reach,45.31566603,-118.403828,BM,23429964,3.357772054,0.52664841,0,0,0,0,0,0,0,1,1,1,1,1,NO,E,NA,NA,NO,DEQ
12257-ORDEQ,Silvies River at Gravel Pit Bridge,43.65237945,-119.0896681,BM,24007028,2.159796331,0.468781052,0.037655923,0.81912484,11,0,1.467560899,0,0,0,1,0,1,0,NO,E,NA,NA,NO,DEQ
12258-ORDEQ,Owyhee River at Sand Springs,43.00760027,-117.7298805,NBR,24541689,0.606457286,0.18030983,0.591359606,0.20156687,60,0.000989295,1.659414068,1,0,0,1,2,0,0,Trash,E,NA,NA,Trash,DEQ
12259-ORDEQ,Jordan Creek at mouth,42.86269157,-117.6411309,NBR,23351069,1.033643395,0.329879903,1.077554755,0.519815801,25,0.003748635,3.160909434,1,0,0,1,2,0,2,Trash,E,NA,NA,Trash,DEQ
12261-ORDEQ,Jordan Creek U/S of Jordan Valley OR at Pleasant Valley Rd Bridge,42.91328,-116.995,NBR,23363143,1.075256417,0.34021209,0.03569266,0.060004017,4,0,0.123524497,1,0,0,1,0,1,0,NO,E,NA,NA,NO,DEQ
12262-ORDEQ,Owyhee River upstream of Hot Springs at 3-Forks,42.52621937,-117.1815843,NBR,23349873,0.518792936,0.149012194,0.642280957,0.178437496,16,0.000202646,1.88109586,1,0,0,1,2,0,0,Trash,E,NA,NA,Trash,DEQ
12264-ORDEQ,Whitehorse Creek at Whitehorse Ranch Road,42.3375822,-118.2350785,NBR,24074319,0.722407964,0.140028209,0.04092864,0.273463087,1,0,0.21324586,1,0,0,1,0,1,0,NO,E,NA,NA,NO,DEQ
12265-ORDEQ,Donner Und Blitzen River upstream of Page Springs Campground,42.80099163,-118.8674885,NBR,24013583,0.368982636,0.08239094,0,0.002088273,0,0,0,1,1,1,1,1,1,1,Ref_GIS.candidate,E,8,Score,YES,DEQ
12266-ORDEQ,Twentymile Creek at Hwy 140,42.17511173,-119.8515755,NBR,24046403,0.983209261,0.557926744,8.402541905,0.012553351,0,0,100.0000005,1,0,0,1,1,1,2,Trash,E,NA,NA,Trash,DEQ
12267-ORDEQ,Deep Creek west of Adel,42.17451202,-119.9266625,NBR,24042605,1.515189559,0.384038945,0.013396997,0.448255473,3,0,1.512829,0,0,0,1,0,1,0,NO,E,NA,NA,NO,DEQ
12268-ORDEQ,McCoy Creek upstream of McCoy Creek Inn,42.9758112,-118.7157048,NBR,24013885,0.81554338,0.158061221,0.000918404,0,0,0,0,1,0,0,1,1,1,1,NO,E,NA,NA,NO,DEQ
12269-ORDEQ,Trout Creek upstream of Little Trout Creek,42.18604717,-118.3704862,NBR,24072893,0.794679753,0.064765791,0,0.051949632,0,0,0,1,1,1,1,1,1,1,Ref_GIS.candidate,E,32,Score,NO,DEQ
12270-ORDEQ,Emily Creek at River Mile 7.1,42.11116827,-124.0957676,KlMt,23949965,2.999976272,0,0,6.067134223,0,0,0,0,1,1,0,1,1,1,NO,W,NA,NA,NO,DEQ
12271-ORDEQ,Twomile Creek at River Mile 0.2,42.61351159,-124.0684146,KlMt,23941173,1.850999589,0.220356537,0,2.529758014,0,0,0,0,0,1,0,1,1,1,NO,W,NA,NA,NO,DEQ
12278-ORDEQ,Fall Creek at River Mile 0.7,45.49436399,-123.5881386,CoRa,23876519,1.298824965,0,0,1.819658118,0,0,0,0,1,1,0,1,1,1,NO,W,NA,NA,NO,DEQ
12279-ORDEQ,Kilchis River at River Mile 8.5,45.56728249,-123.7954443,CoRa,23876043,1.477585764,0.142187922,0,2.97636759,1,0.010937532,0,0,0,1,0,0,2,1,Trash,W,NA,NA,Trash,DEQ
12280-ORDEQ,Rock Creek at River Mile 1.4,45.05529362,-123.6219553,WV,23796971,3.674738632,0.738332549,0.911430989,7.671763224,0,0,0,0,0,0,0,1,1,1,NO,W,NA,NA,NO,DEQ
12281-ORDEQ,Beals Creek at River Mile 0.6,42.9420175,-123.171995,KlMt,23903245,3.206358548,0.595068076,1.696310544,2.177916398,0,0,0,0,0,0,0,1,1,1,NO,W,NA,NA,NO,DEQ
12282-ORDEQ,Williams River at River Mile 55.8,43.20531113,-123.6340688,CoRa,23909851,4.084583816,0.305024051,0,6.375326053,0,0,0,0,0,1,0,1,1,1,NO,W,NA,NA,NO,DEQ
12283-ORDEQ,East Fork Coquille River at River Mile 26,43.1479631,-123.7787853,CoRa,23914967,4.102614623,0.432792907,0,5.578613904,0,0,0,0,0,1,0,1,1,1,NO,W,NA,NA,NO,DEQ
12284-ORDEQ,Dart Creek at River Mile 3.7,45.89006414,-122.8627212,CoRa,23815166,2.634067236,0,8.81513631,6.376625254,0,0,0,0,1,0,0,1,1,1,NO,W,NA,NA,NO,DEQ
12285-ORDEQ,Tributary to East Fork Coquille River at River Mile 0.8,43.16107006,-123.8052228,CoRa,23915555,3.987098447,0,0,1.937898654,0,0,0,0,1,1,0,1,1,1,NO,W,NA,NA,NO,DEQ
12286-ORDEQ,Middle Creek at River Mile 1.6,43.163472,-124.046167,CoRa,23915011,3.014741049,0.433615104,0.513661488,3.59859481,0,0,0,0,0,0,0,1,1,1,NO,W,NA,NA,NO,DEQ
12287-ORDEQ,Panther Creek at River Mile 4.6,43.25777924,-123.5951942,CoRa,23909855,4.048120842,0.718468226,0,5.001006777,0,0,0,0,0,1,0,1,1,1,NO,W,NA,NA,NO,DEQ
12288-ORDEQ,West Fork Milicoma River at River Mile 22.5,43.55519658,-123.9596405,CoRa,23910025,3.260615553,0.43957565,0.001236306,4.543168194,0,0,0,0,0,0,0,1,1,1,NO,W,NA,NA,NO,DEQ
12289-ORDEQ,Elk Creek Street at River Mile 3.0,43.5601777,-123.9403905,CoRa,23910039,3.795493822,0.726810212,0,5.305684929,0,0,0,0,0,1,0,1,1,1,NO,W,NA,NA,NO,DEQ
12290-ORDEQ,Fox Hollow Creek at River Mile 1.3,43.92179153,-123.2353291,WV,23765569,3.383229599,1.155215592,9.030097266,1.743851829,0,0,0,0,0,0,0,1,1,1,NO,W,NA,NA,NO,DEQ
12291-ORDEQ,South Fork Siuslaw River at River Mile 2.3,43.80448937,-123.2300417,WV,23890010,4.011153136,0.775376953,3.682006965,3.868924685,0,0,0,0,0,0,0,1,1,1,NO,W,NA,NA,NO,DEQ
12292-ORDEQ,Elk Creek at River Mile 34.2,43.62671852,-123.2198812,KlMt,24527180,3.035791507,0.458356925,10.35124364,2.991329667,2,0,0,0,0,0,0,0,1,1,NO,W,NA,NA,NO,DEQ
12293-ORDEQ,Cox Creek at River Mile 0.3,43.63268996,-123.2114964,KlMt,24528430,3.476831046,0.220254614,2.986646708,2.674466013,0,0,0,0,0,0,0,1,1,1,NO,W,NA,NA,NO,DEQ
12294-ORDEQ,Unnamed tributary of West Fork Lake Creek at River Mile 1.0,43.51575869,-123.8632801,CoRa,24528558,5.522759537,0,0,11.6113058,0,0,0,2,1,1,2,1,1,1,Trash,W,NA,NA,Trash,DEQ
12295-ORDEQ,Smith River at River Mile 81.3,43.77499511,-123.4214189,CoRa,24527484,3.433358636,0.829148723,0.208916269,2.405326983,0,0,0,0,0,0,0,1,1,1,NO,W,NA,NA,NO,DEQ
12296-ORDEQ,Unnamed tributary to Rock Creek,45.04825339,-123.6053436,WV,23797457,2.5582649,0,0.117096005,6.576717907,0,0,0,0,1,0,0,1,1,1,NO,W,NA,NA,NO,DEQ
12297-ORDEQ,Honcho Creek at River Mile 1.2,43.26705247,-123.8936904,CoRa,23915271,3.111156794,0,0,2.546890917,0,0,0,0,1,1,0,1,1,1,NO,W,NA,NA,NO,DEQ
12298-ORDEQ,Agency Creek at River Mile 0.2,45.075472,-123.618778,WV,23796741,3.579684757,0.559352158,2.621055558,3.58768199,1,0,0,0,0,0,0,0,1,1,NO,W,NA,NA,NO,DEQ
12299-ORDEQ,Cullen Creek at River Mile 0.3,44.20292668,-123.9497979,CoRa,23887084,1.024816046,0,0,1.16940232,0,0,0,1,1,1,1,1,1,1,Ref_GIS.candidate,W,6,N,NO,DEQ
12300-ORDEQ,Lint Creek at River Mile 3.1,44.40705813,-124.0560881,CoRa,23886740,3.123855586,0.600001343,0.685051923,2.831698863,0,0,0,0,0,0,0,1,1,1,NO,W,NA,NA,NO,DEQ
12301-ORDEQ,Yaquina River at Eddyville,44.63507826,-123.774764,CoRa,23880744,3.412256233,0.700347547,3.51744622,3.777917798,0,0,0,0,0,0,0,1,1,1,NO,W,NA,NA,NO,DEQ
12302-ORDEQ,Mettman Creek at River Mile 0.5,43.43781423,-124.1643104,CoRa,23910397,1.833338666,0.437905062,0,5.80230566,0,0,0,0,0,1,0,1,1,1,NO,W,NA,NA,NO,DEQ
12311-ORDEQ,Steer Creek - Upper,44.74551265,-123.6327509,CoRa,23881162,2.510881638,0,0,8.716232702,0,0,0,0,1,1,0,1,1,1,NO,W,NA,NA,NO,DEQ
12312-ORDEQ,Steer Creek - Lower,44.72622365,-123.6584589,CoRa,23881158,2.336207241,0.101184875,0.009106638,5.264726741,0,0,0,0,1,0,0,1,1,1,NO,W,NA,NA,NO,DEQ
12313-ORDEQ,Yaquina River at Harmsen Road,44.72587033,-123.6003051,CoRa,23880772,2.798528331,0.911992704,0,8.073743138,0,0,0,0,0,1,0,1,1,1,NO,W,NA,NA,NO,DEQ
12314-ORDEQ,Brush Creek,44.68210403,-123.6655713,CoRa,23881894,2.185681406,1.594896332,0,1.310815944,0,0,0,0,2,1,1,1,1,1,Trash,W,NA,NA,Trash,DEQ
12315-ORDEQ,Loowit Creek-Lower,46.02180767,-123.8285563,CoRa,23833719,0,0,0,1.479511788,0,0,0,1,1,1,1,1,1,1,Ref_GIS.candidate,W,20,Score,NO,DEQ
12316-ORDEQ,Loowit Creek- Upper,46.02155754,-123.8252719,CoRa,23833719,0,0,0,1.608189418,0,0,0,1,1,1,0,1,1,1,NO,W,20,Score,NO,DEQ
12317-ORDEQ,Shweeash Creek,46.02095354,-123.8415583,CoRa,23833735,0.313182154,0.630238861,0,2.074008558,0,0,0,1,0,1,0,1,1,1,NO,W,NA,NA,NO,DEQ
12318-ORDEQ,Rock Creek - Upper,45.98718366,-123.7484819,CoRa,23833741,4.192684006,1.383700014,0,8.886919992,0,0,0,0,2,1,0,1,1,1,Trash,W,NA,NA,Trash,DEQ
12319-ORDEQ,Rock Creek - Lower,45.99187981,-123.7425376,CoRa,23833741,4.69080183,0.65282674,0,10.01292922,0,0,0,0,0,1,2,1,1,1,Trash,W,NA,NA,Trash,DEQ
12320-ORDEQ,Fox Creek,46.00092181,-123.7023285,CoRa,23833745,2.251338179,0.164219792,0,3.946649881,0,0,0,0,0,1,0,1,1,1,NO,W,NA,NA,NO,DEQ
12327-ORDEQ,Yaquina River upstream of Eddyville,44.65211516,-123.7541312,CoRa,23880744,3.411579192,0.744213738,3.315114904,3.763073147,0,0,0,0,0,0,0,1,1,1,NO,W,NA,NA,NO,DEQ
12328-ORDEQ,Fishhawk Creek at River Mile 1.7,46.0084755,-123.3547611,CoRa,23872885,3.030761242,0.445410643,1.074719261,4.099384127,0,0,0,0,0,0,0,1,1,1,NO,W,NA,NA,NO,DEQ
12339-ORDEQ,Honey Grove Creek at River Mile 1.2,44.38724889,-123.5634058,CoRa,23886426,2.148713871,0.304414003,1.095082726,2.055604011,0,0,0,0,0,0,0,1,1,1,NO,W,NA,NA,NO,DEQ
12342-ORDEQ,Mill Creek at River Mile 1.0,45.4247514,-123.7930061,CoRa,23876207,4.410649244,1.42554578,19.76541941,6.182759445,0,0,0,0,2,0,0,1,1,1,Trash,W,NA,NA,Trash,DEQ
12343-ORDEQ,Big Creek at River Mile 2.9,46.15048761,-123.5858086,CoRa,23832931,2.998700111,0.33496389,0.010935985,5.079427399,2,0.011962996,0,0,0,0,0,0,2,1,Trash,W,NA,NA,Trash,DEQ
12370-ORDEQ,Meadow Creek Lower (Transect 6),45.25997037,-118.402244,BM,23428706,2.844895187,0.512549667,0,0.421324991,1,0.003714128,0,0,0,1,1,0,0,1,NO,E,NA,NA,NO,DEQ
12371-ORDEQ,Meadow Creek Starkey (Transect 6),45.27087807,-118.5320997,BM,23428722,2.952854479,0.465798544,0,0,0,0,0,0,0,1,1,1,1,1,NO,E,NA,NA,NO,DEQ
12372-ORDEQ,Lookout Creek (Transect 6),45.09049646,-118.5336951,BM,23430670,1.028686664,0.103696791,0,0,0,0,0,1,1,1,1,1,1,1,Ref_GIS.candidate,E,18,Score,NO,DEQ
12373-ORDEQ,Limber Jim Creek Upper (Transect 6),45.10826971,-118.292753,BM,23428902,2.131001641,0.542486561,0,0,0,0,0,0,0,1,1,1,1,1,NO,E,NA,NA,NO,DEQ
12374-ORDEQ,Limber Jim Creek Lower (Transect 6),45.10368416,-118.3304434,BM,23428900,2.454911031,0.417219482,0,0,0,0,0,0,0,1,1,1,1,1,NO,E,NA,NA,NO,DEQ
12508-ORDEQ,SF Goble Creek at RM 0.9,45.99196099,-122.8968879,CoRa,24521750,2.086050864,0.82945268,13.1995361,7.208723631,0,0,0,0,0,0,0,1,1,1,NO,W,NA,NA,NO,DEQ
12509-ORDEQ,Long Tom River at River Mile 48.5,44.13879583,-123.4393783,WV,23763169,3.836788926,0.696909763,5.462815491,3.517250543,0,0,0,0,0,0,0,1,1,1,NO,W,NA,NA,NO,DEQ
12510-ORDEQ,Unamed tributary entering Panther Creek at River Mile 14,45.29422241,-123.3709654,CoRa,23796609,4.656943908,0.84623847,0,4.159453054,0,0,0,0,0,1,0,1,1,1,NO,W,NA,NA,NO,DEQ
12511-ORDEQ,Cedar Creek at River Mile 0.6,45.092171,-123.696729,CoRa,23797375,4.670187273,0.552242103,0.082836306,3.527529563,0,0,0,0,0,0,0,1,1,1,NO,W,NA,NA,NO,DEQ
12512-ORDEQ,Williams Canyon Creek at River Mile 1.8,45.4130207,-123.1946505,WV,23805958,2.319517668,0,32.77220346,5.538438258,0,0,0,0,1,2,0,1,1,1,Trash,W,NA,NA,Trash,DEQ
12513-ORDEQ,Unnamed tributary entering Nehalem River at River Mile 70.5,45.99782969,-123.2774411,CoRa,23872887,2.607894883,0.620732464,7.629418163,6.277984522,0,0,0,0,0,0,0,1,1,1,NO,W,NA,NA,NO,DEQ
12514-ORDEQ,North Fork Nehalem River at River Mile 13.1,45.80748636,-123.7355911,CoRa,23872291,3.403715376,0.473707026,0.142685501,4.81487267,3,0.008937868,0,0,0,0,0,0,2,1,Trash,W,NA,NA,Trash,DEQ
12515-ORDEQ,Middle Fork/North Fork Trask River at River Mile 3.0,45.4648387,-123.4355483,CoRa,23875895,3.267929844,0.300008511,0,3.699202324,0,0,0,0,0,1,0,1,1,1,NO,W,NA,NA,NO,DEQ
12516-ORDEQ,Joes Creek at River Mile 0.5,45.30213936,-123.5467537,CoRa,23876811,3.670286504,0.766812361,0,6.148308745,0,0,0,0,0,1,0,1,1,1,NO,W,NA,NA,NO,DEQ
12517-ORDEQ,Salmon River at River Mile 21.0,45.01530615,-123.7226996,CoRa,23881304,3.218260177,0.413090849,0,5.030508073,0,0,0,0,0,1,0,1,1,1,NO,W,NA,NA,NO,DEQ
12518-ORDEQ,Trout Creek at River Mile 0.2,44.46872653,-123.9597167,CoRa,23886656,0.30866185,0,0,1.09063484,0,0,0,1,1,1,1,1,1,1,Ref_GIS.candidate,W,7,N,NO,DEQ
12519-ORDEQ,Drift Creek at River Mile 7.3,44.4546164,-123.9653878,CoRa,23886472,1.409622138,0.17066788,0.252991777,3.286018094,1,0,0,0,0,0,0,0,1,1,NO,W,NA,NA,NO,DEQ
12520-ORDEQ,Tenmile Creek at USFS Tenmile Creek Campground,44.214113,-124.0109982,CoRa,23886166,0.980403261,0.081441846,0.054507489,4.134097779,0,0,0,1,1,0,0,1,1,1,NO,W,NA,NA,NO,DEQ
12521-ORDEQ,Unnamed tributary entering Bernhardt Creek at River Mile 3.0,43.96318479,-123.9711468,CoRa,23890280,0.767426929,0,0,0.216183061,0,0,0,1,1,1,1,1,1,1,Ref_GIS.candidate,W,13,Score,YES,DEQ
12522-ORDEQ,Eames Creek at River Mile 4.8,43.98174568,-123.431115,CoRa,23890364,3.393984348,0,0,4.574084147,0,0,0,0,1,1,0,1,1,1,NO,W,NA,NA,NO,DEQ
12523-ORDEQ,Unnamed tributary entering Wolf Creek at River Mile 13.5,43.93536618,-123.5105268,CoRa,23890400,3.230180902,0,0,0,0,0,0,0,1,1,1,1,1,1,NO,W,NA,NA,NO,DEQ
12524-ORDEQ,Olalla Creek at River Mile 11.6,43.04297211,-123.5405796,KlMt,23900997,3.091439274,0.388552979,0.534480627,5.280948877,3,0,0,0,0,0,0,0,1,1,NO,W,NA,NA,NO,DEQ
12525-ORDEQ,"North Fork Smith River at River Mile 23.0, 1500 feet upstream of North Fork Falls",43.93364543,-123.8140645,CoRa,24527594,1.777757176,0.469463223,0.143526765,3.194519488,0,0,0,0,0,0,0,1,1,1,NO,W,NA,NA,NO,DEQ
12526-ORDEQ,Cabin Creek at River Mile 5.6,43.49838033,-123.3210594,KlMt,24527612,4.26002732,0.772051727,20.50665364,4.256587246,0,0,0,0,0,0,0,1,1,1,NO,W,NA,NA,NO,DEQ
12527-ORDEQ,Benson Creek at River Mile 5.0,43.574333,-124.023806,CoRa,23910169,1.717323127,0,0,2.621201311,0,0,0,0,1,1,0,1,1,1,NO,W,NA,NA,NO,DEQ
12528-ORDEQ,Morgan Creek at River Mile 1.5,43.33368337,-124.0711519,CoRa,23909735,2.803589423,0.199624706,0,0.070023738,0,0,0,0,0,1,1,1,1,1,NO,W,NA,NA,NO,DEQ
12529-ORDEQ,Fishtrap Creek at River Mile 1.4,43.11694189,-124.2156264,CoRa,23914473,4.684004759,1.010524784,0.528509203,4.815882419,0,0,0,0,0,0,0,1,1,1,NO,W,NA,NA,NO,DEQ
12530-ORDEQ,Butler Creek at River Mile 2.1,42.74819227,-124.2791798,CoRa,23920584,0.227945642,0,0,0.066427003,0,0,0,1,1,1,1,1,1,1,Ref_GIS.candidate,W,2,Score,YES,DEQ
12531-ORDEQ,Elk River at River Mile 24.0,42.71827073,-124.2750247,CoRa,23920554,1.133957409,0.099753609,0,2.624697618,0,0,0,1,1,1,0,1,1,1,NO,W,NA,NA,NO,DEQ
12532-ORDEQ,Lobster Creek at River Mile 6.2,42.5769274,-124.2600823,CoRa,23940879,2.097651587,0.105108041,0.00448283,3.595463746,3,0,0,0,1,0,0,0,1,1,NO,W,NA,NA,NO,DEQ
12533-ORDEQ,South Fork Chetco River at River Mile 2.5,42.19096091,-124.0924249,KlMt,23949641,0.758315653,0.037460339,0,0.225955463,0,0,0,1,1,1,1,1,1,1,Ref_GIS.candidate,W,11,N,NO,DEQ
12545-ORDEQ,Fifteenmile Creek 100 feet downstream of Dufur STP outfall,45.45086359,-121.1228068,ColPl,24504670,1.384949458,0.426153659,20.12918895,1.281650606,0,0,8.908911043,0,0,0,1,1,1,2,Trash,E,NA,NA,Trash,DEQ
12547-ORDEQ,Fifteenmile Creek 20 feet upstream of Dufur STP outfall,45.45086759,-121.1231504,ColPl,24504670,1.38744541,0.424291282,20.29348894,1.28107668,0,0,8.824720966,0,0,0,1,1,1,2,Trash,E,NA,NA,Trash,DEQ
12550-ORDEQ,Fifteenmile Creek at Boyd Market Road at Dufur,45.4516742,-121.1155216,ColPl,24504666,1.351006542,0.425541354,16.58273233,1.20608723,1,0,8.593128561,0,0,0,1,0,1,2,Trash,E,NA,NA,Trash,DEQ
12552-ORDEQ,McKenzie River at Mckenzie Bridge,44.17413761,-122.1613511,Ca,23773317,1.223077899,0.180988146,0.001189509,0.913102798,2,0,0,0,0,0,1,0,1,1,NO,W,NA,NA,NO,DEQ
12553-ORDEQ,North Santiam River at Gates School Road Bridge,44.7524124,-122.4112773,Ca,23780495,1.667551576,0.277891096,0.141101157,0.879666868,3,0,0,0,0,0,1,0,1,1,NO,W,NA,NA,NO,DEQ
12559-ORDEQ,North Santiam River at Coopers Ridge Road Bridge 2234,44.69276287,-122.05031,Ca,23780601,1.214348529,0.261139856,0,0.861316341,0,0,0,0,0,1,1,1,1,1,NO,W,NA,NA,NO,DEQ
12590-ORDEQ,Floras Creek at Hwy 101 south of Langlois,42.91603557,-124.4520811,CoRa,23920750,1.992367314,0.233739914,1.073933371,4.155268499,3,0,0,0,0,0,0,0,1,1,NO,W,NA,NA,NO,DEQ
12597-ORDEQ,Murder Creek at RR bridge upstream of Duraflake,44.66558315,-123.0603807,WV,23764535,2.24763101,1.314924392,82.55214723,3.252618275,0,0,0,0,0,2,0,1,1,1,Trash,W,NA,NA,Trash,DEQ
12598-ORDEQ,Murder Creek downstream of Duraflake outfall 002,44.66275862,-123.0679274,WV,23764535,2.475804971,1.375792404,79.92536571,4.144030234,0,0,0,0,2,2,0,1,1,1,Trash,W,NA,NA,Trash,DEQ
12601-ORDEQ,Murder Creek at mouth (upstream of Truax Creek),44.66270609,-123.0761087,WV,23764535,1.861913122,0.994978468,81.41277791,3.307293196,0,0,4.838878026,0,0,2,0,1,1,2,Trash,W,NA,NA,Trash,DEQ
12602-ORDEQ,Murder Creek upstream of I-5 (upstream of freeway access road),44.66469388,-123.0561569,WV,23764535,1.705814631,0.838664846,86.85391972,2.855418519,0,0,0,0,0,2,0,1,1,1,Trash,W,NA,NA,Trash,DEQ
12616-ORDEQ,Powder River 40 feet upstream of South Baker City STP outfall,44.81694866,-117.8291129,BM,24208303,2.625287915,0.821415621,0.943521453,1.157432921,29,0.005527696,6.808989982,0,0,0,1,2,2,2,Trash,E,NA,NA,Trash,DEQ
12621-ORDEQ,Powder River 200 feet downstream of Baker City STP outfall,44.8179092,-117.8287157,BM,24208303,2.62540531,0.821392737,0.946281049,1.157400676,29,0.005527542,6.80808165,0,0,0,1,2,2,2,Trash,E,NA,NA,Trash,DEQ
12623-ORDEQ,North Powder River 20 feet upstream of North Powder STP outfall,45.034667,-117.900778,BM,24208083,1.851065395,0.588139128,10.94569955,1.483377386,4,0.00332282,24.51169378,0,0,0,1,0,0,2,Trash,E,NA,NA,Trash,DEQ
12626-ORDEQ,Wolf Creek at Gilkinson Road & Wolf Creek Lane junction,45.0485768,-117.9929642,BM,24208051,3.520461363,0.586987051,0.589969489,0.264562048,0,0,7.404030409,0,0,0,1,1,1,2,Trash,E,NA,NA,Trash,DEQ
12630-ORDEQ,North Powder River 100'D/S North Powder STP  Outfall,45.03503449,-117.9010961,BM,24208083,1.850993434,0.588116264,10.94815779,1.483319719,4,0.003322691,24.50860779,0,0,0,1,0,0,2,Trash,E,NA,NA,Trash,DEQ
12640-ORDEQ,Unnamed tributary to Muddy Creek upstream of RV park outfall,44.13317576,-123.0463604,WV,NA,0.321941597,0,66.55743467,1.622335037,0,0,0,1,1,2,0,1,1,1,Trash,W,NA,NA,Trash,DEQ
12641-ORDEQ,Unnamed tributary to Muddy Creek downstream of RV Park (Van Duyn),44.13711533,-123.0481724,WV,23765361,3.030117297,1.329410598,39.6303408,4.433514472,0,0,0,0,0,2,0,1,1,1,Trash,W,NA,NA,Trash,DEQ
12663-ORDEQ,Wahoo Creek West Fork at Gravel Spoil,45.46814192,-122.5287391,WV,NA,2.837245296,0,4.087225153,26.43655831,0,0,0,0,1,0,2,1,1,1,Trash,W,NA,NA,Trash,DEQ
12664-ORDEQ,Wahoo Creek East Fork at SE Flavel St.,45.46768989,-122.5289987,WV,NA,2.859392378,0,4.17054498,26.33274284,0,0,0,0,1,0,2,1,1,1,Trash,W,NA,NA,Trash,DEQ
12668-ORDEQ,Johnson Creek tributary at River Mile 9.2 east of disturbance,45.4690291,-122.5248065,WV,23815466,4.016494671,1.098478607,5.249309402,26.77367847,0,0,0,0,0,0,2,1,1,1,Trash,W,NA,NA,Trash,DEQ
12689-ORDEQ,McCoy Creek Lower #2 (Transect 6),45.26308449,-118.4065055,BM,23428650,2.645376169,0.421475395,0.028582895,0,0,0,0,0,0,0,1,1,1,1,NO,E,NA,NA,NO,DEQ
12710-ORDEQ,Umatilla River South Fork at Umatilla Springs Campground,45.7254226,-118.1883397,BM,23648650,1.572302999,0.083429759,0,0,0,0,0,0,1,1,1,1,1,1,NO,E,NA,NA,NO,DEQ
12711-ORDEQ,Umatilla River North Fork at Umatilla Springs Campground,45.72623451,-118.1855333,BM,23648688,1.154810621,0.049796023,0.006744744,0.91749341,2,0,0,1,1,0,1,0,1,1,NO,E,NA,NA,NO,DEQ
12781-ORDEQ,Beaver Creek 0.25 miles up Westwood Drive,45.48119573,-123.7972865,CoRa,23876513,3.781188781,0.440917108,0.079365071,5.413768462,0,0,0,0,0,0,0,1,1,1,NO,W,NA,NA,NO,DEQ
12785-ORDEQ,Drainage ditch at South Prairie School - Port of Tb,45.40790281,-123.8166321,CoRa,NA,4.758015666,0,35.98446459,7.116423149,0,0,0,0,1,2,0,1,1,1,Trash,W,NA,NA,Trash,DEQ
12786-ORDEQ,Mill Creek near alcove (downstream of Elk Creek),45.42029566,-123.7848264,CoRa,23876207,4.493310182,1.38026225,19.24263415,6.419117983,0,0,0,0,2,0,0,1,1,1,Trash,W,NA,NA,Trash,DEQ
12787-ORDEQ,Beaver Creek at Barker Dairy (downstream of culverts),45.4770324,-123.7997396,CoRa,23876513,4.718598219,1.162655505,2.996536512,6.910101737,0,0,0,0,0,0,0,1,1,1,NO,W,NA,NA,NO,DEQ
12790-ORDEQ,Clear Creek at second bridge,45.51964427,-123.7834671,CoRa,23876483,3.56369739,0.1856338,0,8.000774164,0,0,0,0,0,1,0,1,1,1,NO,W,NA,NA,NO,DEQ
12811-ORDEQ,Salmonberry River D/S Little Baldwin Cr,45.70804,-123.45168,CoRa,23871935,2.356322698,0.299860351,0,3.924718446,1,0,0,0,0,1,0,0,1,1,NO,W,NA,NA,NO,DEQ
12812-ORDEQ,Salmonberry River D/S Wolf Cr,45.70775,-123.45973,CoRa,23871933,2.496127091,0.216398693,0,5.454226946,1,0,0,0,0,1,0,0,1,1,NO,W,NA,NA,NO,DEQ
12813-ORDEQ,Salmonberry River 0.5 Mi D/S Wolf Cr,45.70715,-123.47218,CoRa,23871933,2.478313372,0.204248366,0,5.434360208,1,0,0,0,0,1,0,0,1,1,NO,W,NA,NA,NO,DEQ
12814-ORDEQ, Salmonberry River 0.5 Mi D/S Enright,45.72875,-123.57803,CoRa,23871917,2.253854966,0.092700743,0.000556204,4.256392736,1,0,0,0,1,0,0,0,1,1,NO,W,NA,NA,NO,DEQ
12815-ORDEQ,Salmonberry River U/S Belfort Cr,45.73287,-123.60149,CoRa,23871917,2.214198198,0.090051636,0.00054031,4.13475786,1,0,0,0,1,0,0,0,1,1,NO,W,NA,NA,NO,DEQ
12816-ORDEQ,Salmonberry River D/S Brix Cr,45.73672,-123.61551,CoRa,23871915,2.198804694,0.110595387,0.002619364,4.019288565,1,0,0,0,0,0,0,0,1,1,NO,W,NA,NA,NO,DEQ
12817-ORDEQ,Salmonberry River 400 ft. U/S Belding Cr,45.70809,-123.50475,CoRa,23871929,2.351834814,0.156602355,0,4.763499647,1,0,0,0,0,1,0,0,1,1,NO,W,NA,NA,NO,DEQ
12818-ORDEQ,North Fork Salmonberry River at mouth,45.71754053,-123.5225173,CoRa,23872777,2.615108836,0.067478091,0.001518257,4.491252696,0,0,0,0,1,0,0,1,1,1,NO,W,NA,NA,NO,DEQ
12819-ORDEQ,NF Salmonberry River 0.25 Mi U/S 1st unnamed trib,45.72732,-123.50767,CoRa,NA,2.697090216,0.078256906,0.00176078,5.106314484,0,0,0,0,1,0,0,1,1,1,NO,W,NA,NA,NO,DEQ
12820-ORDEQ,Fox Creek at RM 0.6 (upper site) (Youngs Bay),45.99895,-123.70306,CoRa,23833745,1.961877371,0.190356538,0,4.204621456,0,0,0,0,0,1,0,1,1,1,NO,W,NA,NA,NO,DEQ
12843-ORDEQ,Anderson Creek at Hwy 101,45.41956775,-123.8247486,CoRa,23876607,5.690531153,0.470298788,20.94864431,12.05415483,0,0,0,2,0,0,2,1,1,1,Trash,W,NA,NA,Trash,DEQ
12868-ORDEQ,A-3 Channel downstream of Bertelsen Road (end of industrial park),44.05618263,-123.1682858,WV,NA,7.700751945,0,5.728904887,1.261523757,0,0,0,2,1,0,1,1,1,1,Trash,W,NA,NA,Trash,DEQ
12869-ORDEQ,A-3 Channel at Wallis Road (downstream of culvert),44.05364949,-123.1544761,WV,NA,10.99623912,0,2.053217625,0.879000101,1,0.184080701,0,2,1,0,1,0,2,1,Trash,W,NA,NA,Trash,DEQ
12870-ORDEQ,A-3 Channel at Seneca Road (downstream of culvert),44.05417916,-123.1406262,WV,NA,4.685758136,0,0,0.520833269,0,0,0,0,1,1,1,1,1,1,NO,W,NA,NA,NO,DEQ
12871-ORDEQ,Candle Creek 0.5 miles from Jefferson Wilderness Trailhead,44.5861629,-121.6810537,EC,23700917,0,0,0,0,0,0,0,1,1,1,1,1,1,1,Ref_GIS.candidate,E,0,Score,YES,DEQ
12872-ORDEQ,First Creek at USFS Road 12,44.45939353,-121.6994605,EC,23700219,0.99571204,0.373638012,0,1.603642563,0,0,0,1,0,1,0,1,1,1,NO,E,NA,NA,NO,DEQ
12873-ORDEQ,Odell Creek 0.3 miles downstream of Highway 58 Bridge,43.54896942,-121.9457963,EC,23700531,0.423548212,0.143886371,0,0.717420449,0,0,0,1,0,1,1,1,1,1,NO,E,20,Score,NO,DEQ
12874-ORDEQ,Little McKay Creek at USFS Road 2705,44.46800539,-120.714062,BM,23714472,3.414395831,0.541616886,0,0,0,0,0,0,0,1,1,1,1,1,NO,E,NA,NA,NO,DEQ
12875-ORDEQ,Bear Creek at River Mile 15.4,43.97321036,-120.6844654,BM,24515538,1.259591525,0.340713529,0.187257411,0.047654501,4,0.003407135,0,0,0,0,1,0,0,1,NO,E,NA,NA,NO,DEQ
12876-ORDEQ,Cow Creek at River Mile 2.4,43.97300517,-120.5385544,BM,24516974,1.196773968,0.283760393,0,0,0,0,0,0,0,1,1,1,1,1,NO,E,NA,NA,NO,DEQ
12877-ORDEQ,Dry Paulina Creek upstream site,44.190296,-119.9624065,BM,23708995,2.111042274,0.70594921,0,0,0,0,0,0,0,1,1,1,1,1,NO,E,NA,NA,NO,DEQ
12878-ORDEQ,Dry Paulina Creek downstream site,44.1810262,-119.9596606,BM,23708991,2.021383988,0.675760472,0,0,0,0,0,0,0,1,1,1,1,1,NO,E,NA,NA,NO,DEQ
12879-ORDEQ,Paulina Creek at River Mile 2.0,44.16889313,-119.952535,BM,23709011,1.289933765,0.375000478,0,0,0,0,0,0,0,1,1,1,1,1,NO,E,NA,NA,NO,DEQ
12880-ORDEQ,Roba Creek near Paulina,44.27109886,-119.9757161,BM,23709077,2.640799427,0.642738433,0,0,0,0,0,0,0,1,1,1,1,1,NO,E,NA,NA,NO,DEQ
12881-ORDEQ,Marks Creek at Cougar River Campground,44.449632,-120.4649935,BM,23714082,2.186087647,0.787705844,0,1.081740871,0,0,0,0,0,1,1,1,1,1,NO,E,NA,NA,NO,DEQ
12882-ORDEQ,Little Summit Creek at River Mile 0.4,44.35475406,-119.9977383,BM,24515894,3.005038085,0.617727576,0,0,0,0,0,0,0,1,1,1,1,1,NO,E,NA,NA,NO,DEQ
12883-ORDEQ,Hemlock Creek 75 feet downstream of USFS Road 5830,43.34322502,-121.8838649,EC,23706420,1.149078288,0.324990729,0,0,0,0,0,1,0,1,1,1,1,1,NO,E,NA,NA,NO,DEQ
12884-ORDEQ,Little Deschutes River about 0.5 miles downstream of USFS Road 100,43.45050619,-121.76845,EC,23706368,2.170012767,0.220001058,0,1.086613865,4,0.00423079,0,0,0,1,1,0,0,1,NO,E,NA,NA,NO,DEQ
12886-ORDEQ,Jefferson Creek 0.3 miles upstream of USFS Road 1290 bridge,44.5694185,-121.6465448,EC,23700171,0.316526701,0.013868433,0,0.370596357,0,0,0,1,1,1,1,1,1,1,Ref_GIS.candidate,E,3,Score,YES,DEQ
12887-ORDEQ,Deschutes River about 0.2 miles upstream of Lower Bridge,44.36088606,-121.2894879,BM,23700355,2.869803637,0.303975897,1.088061015,2.582276232,114,0.009479498,13.90890956,0,0,0,0,2,2,2,Trash,E,NA,NA,Trash,DEQ
12888-ORDEQ,Whychus Creek at River Mile 0.4,44.45691006,-121.3401228,BM,23700287,2.662183695,0.13495135,0.730016179,2.235688696,7,0.009996396,10.73385608,0,0,0,0,0,2,2,Trash,E,NA,NA,Trash,DEQ
12889-ORDEQ,Canyon Creek near USFS Road 400,44.51047085,-121.7078969,EC,23700205,0.754685683,0.115335265,0,0.660772964,0,0,0,1,0,1,1,1,1,1,NO,E,8,Score,YES,DEQ
12890-ORDEQ,Fox Canyon Creek at River Mile 2.6 at end of USFS Road 557,44.25583496,-120.1424568,BM,24516018,2.318287587,0.664407681,0,0,0,0,0,0,0,1,1,1,1,1,NO,E,NA,NA,NO,DEQ
12891-ORDEQ,Wickiup Creek at River Mile 1.6,44.19516349,-120.5399939,BM,24516516,1.603651784,0.498402237,0,0,1,0,0,0,0,1,1,0,1,1,NO,E,NA,NA,NO,DEQ
12892-ORDEQ,Dipping Vat Creek near Moccasin Ridge,44.2278946,-119.9280199,BM,23709005,3.017248426,1.020855477,0,0,0,0,0,0,0,1,1,1,1,1,NO,E,NA,NA,NO,DEQ
12893-ORDEQ,"Crooked River at Prineville STP, River Mile 47.2",44.31480219,-120.8773112,BM,23713956,1.436774051,0.338050015,0.935690367,0.452974461,42,0.001634528,0.556783345,0,0,0,1,2,0,0,Trash,E,NA,NA,Trash,DEQ
12894-ORDEQ,Cultus Creek upstream of Muskrat Lake at River Mile 8.8,43.87107793,-121.9022593,Ca,23700665,0,0,0,0,0,0,0,1,1,1,1,1,1,1,Ref_GIS.candidate,W,3,Score,YES,DEQ
12895-ORDEQ,Little Bear Creek at River Mile 1.5,43.99434324,-120.6801935,BM,24516138,1.066668461,0.163262641,0,0.266162598,0,0,0,1,0,1,1,1,1,1,NO,E,NA,NA,NO,DEQ
12896-ORDEQ,Little Bear Creek at River Mile 8.0,44.03220073,-120.5836417,BM,24516142,1.383705334,0.298098134,0,0,0,0,0,0,0,1,1,1,1,1,NO,E,NA,NA,NO,DEQ
12997-ORDEQ,McCoy Creek Restored (Transect 1),45.26640638,-118.4174668,BM,23428652,2.668837739,0.438004367,0,0,0,0,0,0,0,1,1,1,1,1,NO,E,NA,NA,NO,DEQ
13014-ORDEQ,South Fork Blitzen River at Blitzen Crossing,42.63878766,-118.763194,NBR,24013637,0.258506714,0.062406061,0,0,0,0,0,1,1,1,1,1,1,1,Ref_GIS.candidate,E,3,Score,YES,DEQ
13054-ORDEQ,McCoy Creek Restored (Transect 3),45.26870604,-118.4188897,BM,23428654,2.673480882,0.438916923,0,0,0,0,0,0,0,1,1,1,1,1,NO,E,NA,NA,NO,DEQ
13062-ORDEQ,Powder River at Hwy 7 (2 miles south of Baker City),44.7425182,-117.8348208,BM,24208315,2.645067736,0.82077045,0.781520376,1.093877657,26,0.006885658,7.553537318,0,0,0,1,2,2,2,Trash,E,NA,NA,Trash,DEQ
13070-ORDEQ,Clackamas River at Mciver Park (upper boat ramp),45.29951681,-122.3603872,WV,23809080,1.426750426,0.285761232,0.526031288,0.900797267,31,0,0,0,0,0,1,2,1,1,Trash,W,NA,NA,Trash,DEQ
13082-ORDEQ,Patawa Creek at confluence with Tutwilla Creek,45.65406524,-118.7944143,ColPl,23648398,1.332474366,0.363920884,55.0289133,3.801732309,5,0.020217827,0,0,0,2,0,0,2,1,Trash,E,NA,NA,Trash,DEQ
13121-ORDEQ,Hamilton Creek at River Mile 1.7,45.96944777,-123.5608976,CoRa,23872371,3.248605349,0.317914481,0,3.199277368,0,0,0,0,0,1,0,1,1,1,NO,W,NA,NA,NO,DEQ
13137-ORDEQ,Meachum Creek at River Mile 1.4 upstream of RR bridge,45.68897333,-118.3586995,BM,23648490,1.044710297,0.118665253,0.004048215,0.261231548,2,0,0,1,0,0,1,0,1,1,NO,E,NA,NA,NO,DEQ
13138-ORDEQ,East Fork Hood River at County Gravel Pit (River Mile 0.75),45.57040173,-121.6158379,EC,24504424,1.448711572,0.507558998,6.750574,1.686225232,3,0,5.17828556,0,0,0,0,0,1,2,Trash,E,NA,NA,Trash,DEQ
13139-ORDEQ,Middle Fork Hood River at River Mile 1.0 (ODFW Smolt Trap),45.56240944,-121.6318812,EC,24504404,1.504076947,0.403103656,0.921334625,0.278605794,0,0,0,0,0,0,1,1,1,1,NO,E,NA,NA,NO,DEQ
13140-ORDEQ,West Fork Hood River at Lost Lake Road (River Mile 4.7),45.55681848,-121.6875108,Ca,24504372,1.685328034,0.410219754,0,1.289047245,0,0,0,0,0,1,1,1,1,1,NO,W,NA,NA,NO,DEQ
13141-ORDEQ,Neal Creek at mouth (upstream of bridge),45.66386253,-121.525546,EC,24505130,2.329047909,0.663398556,19.49151921,1.400572455,0,0,12.38761165,0,0,0,1,1,1,2,Trash,E,NA,NA,Trash,DEQ
13181-ORDEQ,Baldwin Creek at end of Baldwin Creek Road,45.56335219,-121.5849761,EC,24506576,2.159389164,0.809946139,16.78806707,3.436286021,0,0,39.32470518,0,0,0,0,1,1,2,Trash,E,NA,NA,Trash,DEQ
13195-ORDEQ,Testament Creek at River Mile 4.17,45.24603998,-123.5224603,CoRa,23876267,3.868077393,0.489188925,0,8.691465643,0,0,0,0,0,1,0,1,1,1,NO,W,NA,NA,NO,DEQ
13196-ORDEQ,Jumpoff Joe Creek at River Mile 1.17,42.52245245,-123.4834207,KlMt,23940659,3.252200829,0.576362608,2.306987395,7.340735192,14,0.007249844,0,0,0,0,0,0,2,1,Trash,W,NA,NA,Trash,DEQ
13197-ORDEQ,South Fork Stewart Creek at River Mile 2.30,46.11592136,-123.116484,CoRa,24521486,2.006477901,0,0.678763212,4.184357064,0,0,0,0,1,0,0,1,1,1,NO,W,NA,NA,NO,DEQ
13198-ORDEQ,Tributary to Middle Creek at River Mile 1.04,42.85009762,-123.5361457,KlMt,23902725,4.091338892,0.275983883,0,10.09836413,0,0,0,0,0,1,2,1,1,1,Trash,W,NA,NA,Trash,DEQ
13199-ORDEQ,North Fork Mill Creek at River Mile 5.68,45.53244633,-121.4050276,EC,24504554,1.831248375,0.303720577,0,0,0,0,0,0,0,1,1,1,1,1,NO,E,NA,NA,NO,DEQ
13200-ORDEQ,Tributary to Salmon River,45.29010197,-121.9288326,Ca,23737605,0,0,0,0,0,0,0,1,1,1,1,1,1,1,Ref_GIS.candidate,W,1,Score,YES,DEQ
13201-ORDEQ,Haight Creek at River Mile 1.20,43.8628902,-123.4940416,CoRa,23890530,1.509581421,0,0,0.281404254,0,0,0,0,1,1,1,1,1,1,NO,W,NA,NA,NO,DEQ
13203-ORDEQ,Clear CR at RM 2.47,45.17570917,-123.8849511,CoRa,23876145,2.225419488,0,0,4.78865324,0,0,0,0,1,1,0,1,1,1,NO,W,NA,NA,NO,DEQ
13204-ORDEQ,North Fork Kilchis River at River Mile 3.94,45.62124728,-123.7070063,CoRa,23876051,2.328440228,0.169264883,0,4.699964071,0,0,0,0,0,1,0,1,1,1,NO,W,NA,NA,NO,DEQ
13205-ORDEQ,Wolf Creek at River Mile 15.15,42.71448215,-123.2577081,KlMt,23940823,3.673811248,0,0,9.131767546,0,0,0,0,1,1,0,1,1,1,NO,W,NA,NA,NO,DEQ
13206-ORDEQ,Tributary to South Fork Lobster Creek,42.5906856,-124.1804731,CoRa,23941213,2.583354165,0.334470533,0,3.227613989,0,0,0,0,0,1,0,1,1,1,NO,W,NA,NA,NO,DEQ
13207-ORDEQ,Tributary to South Fork Lawson Creek,42.37299119,-124.1677299,KlMt,23946173,2.588040803,0,0,9.810814879,0,0,0,0,1,1,2,1,1,1,Trash,W,NA,NA,Trash,DEQ
13208-ORDEQ,Humbug Creek at River Mile 3.94,42.2993078,-123.1324117,KlMt,23936313,1.228534165,0.1748955,0,2.276112257,0,0,0,0,0,1,0,1,1,1,NO,W,NA,NA,NO,DEQ
13209-ORDEQ,Powell Creek at River Mile 6.67,42.24445766,-123.3601501,KlMt,23935865,2.422724093,0.866476042,0,5.632458996,0,0,0,0,0,1,0,1,1,1,NO,W,NA,NA,NO,DEQ
13210-ORDEQ,Calapooya Creek at River Mile 33.66,43.47257137,-123.0574039,Ca,24527002,3.283678708,0.180645394,0,0,0,0,0,0,0,1,1,1,1,1,NO,W,NA,NA,NO,DEQ
13211-ORDEQ,Weatherly Creek at River Mile 2.00,43.68009613,-123.7284942,CoRa,24527268,1.958699271,0.266054741,0.002993115,3.271610442,0,0,0,0,0,0,0,1,1,1,NO,W,NA,NA,NO,DEQ
13212-ORDEQ,Salt Creek at River Mile 0.64,42.93643563,-122.9477718,Ca,23903287,3.119693263,0.549601539,0,0,0,0,0,0,0,1,1,1,1,1,NO,W,NA,NA,NO,DEQ
13213-ORDEQ,Shoup Creek at River Mile 3.12,43.40429167,-122.9831009,Ca,23894916,3.346373583,1.112223334,0,0,0,0,0,0,0,1,1,1,1,1,NO,W,NA,NA,NO,DEQ
13214-ORDEQ,West Fork Canyon Creek 3.5 miles west of I-5,42.86380945,-123.2773767,KlMt,23901413,2.978479991,0.517290433,0.002586452,5.277634515,0,0,0,0,0,0,0,1,1,1,NO,W,NA,NA,NO,DEQ
13215-ORDEQ,Camp Creek at River Mile 3.29,45.46824796,-122.0532198,Ca,23737257,0.601200619,0,0,0,0,0,0,1,1,1,1,1,1,1,Ref_GIS.candidate,W,12,Score,YES,DEQ
13216-ORDEQ,West Fork Millicoma River 0.25 miles upstream of hatchery,43.49016687,-124.0083812,CoRa,23910017,2.958564411,0.402430681,0.000842297,4.314538738,0,0,0,0,0,0,0,1,1,1,NO,W,NA,NA,NO,DEQ
13217-ORDEQ,Tributary to North Fork Trask River at River Mile 1.73,45.43550902,-123.526667,CoRa,23876615,2.393919588,0,0,5.761585787,0,0,0,0,1,1,0,1,1,1,NO,W,NA,NA,NO,DEQ
13218-ORDEQ,Tributary to Fall Creek at River Mile 2.72,42.2436508,-123.7861965,KlMt,23945759,0,0,0,0,0,0,0,1,1,1,1,1,1,1,Ref_GIS.candidate,W,1,Score,YES,DEQ
13219-ORDEQ,Tributary to Elder Creek at River Mile 0.35,42.04418801,-123.5769402,KlMt,23946029,0.846506046,0.577200577,0,3.166904623,0,0,0,1,0,1,0,1,1,1,NO,W,NA,NA,NO,DEQ
13221-ORDEQ,Tributary to Beaver Creek at River Mile 0,46.0806454,-122.9859712,CoRa,24520412,1.501144859,1.024695153,6.855603317,4.777875865,0,0,0,0,0,0,0,1,1,1,NO,W,NA,NA,NO,DEQ
13222-ORDEQ,White Creek at River Mile 2.44,43.45440797,-123.0259114,Ca,24528730,4.711612141,1.439263097,0,0,0,0,0,0,2,1,1,1,1,1,Trash,W,NA,NA,Trash,DEQ
13223-ORDEQ,Company Creek at River Mile 0.76,45.59460226,-123.7433169,CoRa,23876365,1.17087611,0,0,1.927505604,0,0,0,1,1,1,0,1,1,1,NO,W,NA,NA,NO,DEQ
13224-ORDEQ,Schroeder Creek at River Mile 2.27,45.63933606,-123.7085144,CoRa,23876307,1.022327257,0,0,0.98741595,0,0,0,1,1,1,1,1,1,1,Ref_GIS.candidate,W,3,Y,YES,DEQ
13225-ORDEQ,Clear Creek at River Mile 1.48,45.51537461,-123.7738668,CoRa,23876483,3.818472653,0.244012542,0,9.092738134,0,0,0,0,0,1,0,1,1,1,NO,W,NA,NA,NO,DEQ
13226-ORDEQ,Bob Creek at River Mile 1.0,44.24919958,-124.0961888,CoRa,23887010,0.299669156,0,0,1.209507408,0,0,0,1,1,1,1,1,1,1,Ref_GIS.candidate,W,1,Score,YES,DEQ
13227-ORDEQ,Red Cedar at Creek at mouth,42.7095178,-124.3174477,CoRa,23921110,0,0,0,0,0,0,0,1,1,1,1,1,1,1,Ref_GIS.candidate,W,0,Score,YES,DEQ
13228-ORDEQ,South Fork Lobster Creek near USFS Road 310#4,42.60202948,-124.1532182,CoRa,23940895,1.601463066,0,0,2.325857821,0,0,0,0,1,1,0,1,1,1,NO,W,NA,NA,NO,DEQ
13229-ORDEQ,Tributary to Lawson Creek near USFS Road 310#4,42.43705182,-124.1568975,KlMt,23946291,2.87545092,0.934492104,0,10.99887548,0,0,0,0,0,1,2,1,1,1,Trash,W,NA,NA,Trash,DEQ
13230-ORDEQ,Hicks Creek off 1160 Trail #20,42.65428661,-124.0167821,KlMt,NA,0.907315531,0,0,3.408817896,0,0,0,1,1,1,0,1,1,1,NO,W,NA,NA,NO,DEQ
13231-ORDEQ,Big Horn Creek at mouth,45.26243472,-121.9208773,Ca,23737687,0,0,0,0,0,0,0,1,1,1,1,1,1,1,Ref_GIS.candidate,W,0,Score,YES,DEQ
13234-ORDEQ,Bear Creek 2.2 miles on Bear Creek Road,43.96693671,-120.6760848,BM,24515540,1.26721212,0.338523801,0.189850948,0.037103981,4,0.003454325,0,0,0,0,1,0,0,1,NO,E,NA,NA,NO,DEQ
13235-ORDEQ,Pine Creek 4.0 miles on Pine Creek Road,44.08610627,-120.4074154,BM,24515692,2.700429196,0.98567145,0,0,0,0,0,0,0,1,1,1,1,1,NO,E,NA,NA,NO,DEQ
13236-ORDEQ,Trout Creek 2.8 miles on USFS Road 1018 (left to end),44.27395308,-121.689239,EC,23700771,1.115630602,0.074279581,0,0.179585514,0,0,0,1,1,1,1,1,1,1,Ref_GIS.candidate,E,20,Score,NO,DEQ
13237-ORDEQ,Brush Creek 7.0 miles on USFS Road 12 (turn right),44.50470272,-121.6595455,EC,23700723,2.185658637,0.642116416,0,1.583140078,0,0,0,0,0,1,1,1,1,1,NO,E,NA,NA,NO,DEQ
13239-ORDEQ,Wolf Creek 0.7 miles on USFS Road (42)-800,44.27287657,-119.8222957,BM,23708963,3.449021425,0.690731761,0,0,0,0,0,0,0,1,1,1,1,1,NO,E,NA,NA,NO,DEQ
13240-ORDEQ,South Fork Beaver Creek at Bernard Ranch,44.11051747,-119.7195728,BM,23708845,1.624048447,0.428096853,0,0.248001348,2,0,0,0,0,1,1,0,1,1,NO,E,NA,NA,NO,DEQ
13241-ORDEQ,First Creek at USFS Road (1220)-100,44.45638391,-121.7062168,EC,23700219,1.648259563,0.354876765,0,1.466756108,0,0,0,0,0,1,1,1,1,1,NO,E,NA,NA,NO,DEQ
13242-ORDEQ,Tumalo Creek at Shevlin Park Covered Bridge,44.07480453,-121.3801728,EC,23700375,1.455652916,0.295205131,0,0.120711535,0,0,5.487148805,0,0,1,1,1,1,2,Trash,E,NA,NA,Trash,DEQ
13243-ORDEQ,Wildcat Creek at Shotgun Creek confluence,44.11736377,-120.3359408,BM,24515716,2.203250981,0.527530498,0,0,0,0,0,0,0,1,1,1,1,1,NO,E,NA,NA,NO,DEQ
13244-ORDEQ,Canton Creek at River Mile 15.66,43.49047317,-122.7246789,Ca,23894722,0.342096243,0,0,0,0,0,0,1,1,1,1,1,1,1,Ref_GIS.candidate,W,14.25,Score,YES,DEQ
13263-ORDEQ,Tenmile Creek at River Mile 9.38,44.21654996,-123.972745,CoRa,23886170,1.189607867,0,0,6.79705959,0,0,0,0,1,1,0,1,1,1,NO,W,NA,NA,NO,DEQ
13264-ORDEQ,Tributary to Lawson Creek west of USFS Trail 1173,42.48641481,-124.085578,KlMt,23944945,0,0,0,0,0,0,0,1,1,1,1,1,1,1,Ref_GIS.candidate,W,1,Score,YES,DEQ
13265-ORDEQ,Tributary to North Fork Wolf Creek at River Mile 0.45,45.79469597,-123.3836671,CoRa,23872725,1.912868518,0.363108206,0,2.426543949,0,0,0,0,0,1,0,1,1,1,NO,W,NA,NA,NO,DEQ
13269-ORDEQ,Willow Creek Upper Uaa Site,42.16686007,-118.2245519,NBR,24074869,0.441870367,0.049409068,0,0,0,0,0,1,1,1,1,1,1,1,Ref_GIS.candidate,E,2,Score,YES,DEQ
13270-ORDEQ,Willow Creek Middle Uaa Site,42.2341422,-118.2334271,NBR,24074673,0.578981028,0.089368928,0,0,0,0,0,1,1,1,1,1,1,1,Ref_GIS.candidate,E,11,Score,YES,DEQ
13271-ORDEQ,Willow Creek Lower Uaa Site,42.29869327,-118.2733888,NBR,24074407,0.693870141,0.165968217,0.005858812,0.278249996,0,0,0,1,0,0,1,1,1,1,NO,E,NA,NA,NO,DEQ
13272-ORDEQ,Cummins Creek at River Mile 1.02,44.26647482,-124.0909954,CoRa,23886182,0.298098938,0,0,1.754302184,0,0,0,1,1,1,0,1,1,1,NO,W,5,Score,YES,DEQ
13284-ORDEQ,McKay Creek upstream of North Fork McKay Creek confluence,45.50280668,-118.6228101,ColPl,23648298,1.045630794,0.12301763,0.0404547,0.431357238,0,0,0,1,0,0,1,1,1,1,NO,E,NA,NA,NO,DEQ
13411-ORDEQ,Miami River at Moss Creek Road,45.57482872,-123.8738959,CoRa,23876081,2.723648528,0.340560017,1.029770254,4.981494521,4,0.027244801,0,0,0,0,0,0,2,1,Trash,W,NA,NA,Trash,DEQ
13416-ORDEQ,Kilchis River at New HWY 101,45.49570389,-123.8503561,CoRa,23876029,1.895248774,0.238324368,0.83870157,3.486131455,7,0.035748655,0,0,0,0,0,0,2,1,Trash,W,NA,NA,Trash,DEQ
13421-ORDEQ,Wilson River at Hwy 101,45.4782454,-123.8443842,CoRa,23875919,2.385587662,0.280976945,0.91296963,4.498770195,8,0.006108194,0,0,0,0,0,0,2,1,Trash,W,NA,NA,Trash,DEQ
13424-ORDEQ,Wilson R at HWY 6 at LLID RM 10.2,45.47183242,-123.7367122,CoRa,23875925,2.359290436,0.280615442,0.22503287,4.629038163,4,0,0,0,0,0,0,0,1,1,NO,W,NA,NA,NO,DEQ
13433-ORDEQ,Trask River at Hwy 101,45.42943143,-123.8238939,CoRa,23875825,2.748191175,0.291444528,2.808702,5.031128415,10,0.016452514,0,0,0,0,0,0,2,1,Trash,W,NA,NA,Trash,DEQ
13440-ORDEQ,Tillamook River at Bewley Creek Road,45.40798957,-123.8246588,CoRa,23875795,4.144411421,0.564903103,8.830368295,4.653256268,1,0.010658549,0,0,0,0,0,0,2,1,Trash,W,NA,NA,Trash,DEQ
13483-ORDEQ,Holden Creek at Mccormack Loop Road,45.4541135,-123.7999841,CoRa,23876557,3.925760935,0.991620804,73.91769425,5.169064264,0,0,0,0,0,2,0,1,1,1,Trash,W,NA,NA,Trash,DEQ
13485-ORDEQ,Holden Creek at Miller Street,45.44996855,-123.8383349,CoRa,23876557,7.749269107,2.482467573,45.31985244,11.6041808,0,0,0,2,2,2,2,1,1,1,Trash,W,NA,NA,Trash,DEQ
13501-ORDEQ,Bewley Creek at River Mile 0.3 (tributary of Tillamook River),45.40332301,-123.8299649,CoRa,23876137,4.606620112,1.006806009,3.771494552,6.915676943,0,0,0,0,0,0,0,1,1,1,NO,W,NA,NA,NO,DEQ
13513-ORDEQ,Mill Creek at Brickyard Road,45.4163265,-123.7776409,CoRa,23876211,5.197743981,2.939606973,6.154774192,10.10292513,0,0,0,2,2,0,2,1,1,1,Trash,W,NA,NA,Trash,DEQ
13532-ORDEQ,Murphy Creek at Curl Road (downstream of Landolt Farm),45.50861817,-123.8362545,CoRa,23876461,2.40848436,2.360290724,4.371180277,0.353862295,0,0,0,0,2,0,1,1,1,1,Trash,W,NA,NA,Trash,DEQ
13570-ORDEQ,Millicoma River at Rooke-Higgins boat ramp,43.40532,-124.05858,CoRa,23909915,2.989733509,0.453161132,0.080896686,4.751488448,1,0,0,0,0,0,0,0,1,1,NO,W,NA,NA,NO,DEQ
13574-ORDEQ,South Fork Coos River at Anson Rogers Bridge,43.36591445,-124.0820888,CoRa,23909723,3.558998816,0.448598874,0.159509652,4.701839225,2,0,0,0,0,0,0,0,1,1,NO,W,NA,NA,NO,DEQ
13695-ORDEQ,Black Rock Fork at Boze Shelter River Mile 4.8,43.14073466,-122.5536373,Ca,23901805,2.174834115,0.200195691,0,0,0,0,0,0,0,1,1,1,1,1,NO,W,NA,NA,NO,DEQ
14008-ORDEQ,Clackamas River at Memaloose Road,45.1925,-122.21215,Ca,23809112,1.351744716,0.29258941,0.001252813,0.850190396,21,0,0,0,0,0,1,2,1,1,Trash,W,NA,NA,Trash,DEQ
16986-ORDEQ,Wanderer's Creek near mouth,45.09817412,-122.168495,Ca,23810084,0.355004912,0,0,0,0,0,0,1,1,1,1,1,1,1,Ref_GIS.candidate,W,23,Score,NO,DEQ
16994-ORDEQ,Mill Creek (Downstream) at Coffer Ranch,44.35426551,-120.6703411,BM,23714112,1.39879311,0.301776559,0.011870868,0,9,0,0,0,0,0,1,0,1,1,NO,E,NA,NA,NO,DEQ
16996-ORDEQ,Mill Creek (upstream) at Winters' property,44.43598922,-120.5852115,BM,23714124,1.331207683,0.275402432,0,0,7,0,0,0,0,1,1,0,1,1,NO,E,NA,NA,NO,DEQ
16997-ORDEQ,Crooked River at Hwy 126 Bridge,44.30194793,-120.8617034,BM,23713956,1.439288369,0.338950408,0.930016076,0.449152157,41,0.001480133,0.517424956,0,0,0,1,2,0,0,Trash,E,NA,NA,Trash,DEQ
16998-ORDEQ,Jackson Creek at FSR 4250,44.40702342,-119.9297239,BM,24516274,2.806858486,0.474248316,0,0,0,0,0,0,0,1,1,1,1,1,NO,E,NA,NA,NO,DEQ
16999-ORDEQ,Fox Creek at FSR 2230,44.41015433,-120.2183079,BM,24516234,1.216890994,0.333016967,0,0,0,0,0,0,0,1,1,1,1,1,NO,E,NA,NA,NO,DEQ
17000-ORDEQ,Porter Creek at FSR 30-400,44.36404747,-120.0829291,BM,24516312,2.426900918,0.361984398,0,0,0,0,0,0,0,1,1,1,1,1,NO,E,NA,NA,NO,DEQ
17001-ORDEQ,McKay Creek at A-Y Spring,44.47529021,-120.6716164,BM,23714200,1.471045114,0.267512005,0,0,1,0,0,0,0,1,1,0,1,1,NO,E,NA,NA,NO,DEQ
17002-ORDEQ,Gray Creek at FSR 4225 stream crossing,44.28000532,-120.239815,BM,24516420,2.450268727,0.56517531,0,0,0,0,0,0,0,1,1,1,1,1,NO,E,NA,NA,NO,DEQ
17003-ORDEQ,Ochoco Creek at Hwy 22 at Mile Marker 6 (Ontko Property),44.38002712,-120.4623925,BM,23714044,1.92488511,0.554256856,0,0,1,0,0,0,0,1,1,0,1,1,NO,E,NA,NA,NO,DEQ
17004-ORDEQ,Brush Creek (upstream) at FSR 12-547 stream crossing,44.52242489,-121.6875439,EC,23700723,1.607014583,0.749168891,0,2.077963085,0,0,0,0,0,1,0,1,1,1,NO,E,NA,NA,NO,DEQ
17005-ORDEQ,Whychus Creek upstream of FSR 6360 crossing,44.40425435,-121.4026698,BM,23700293,2.833962323,0.120917117,0.815107143,2.404125893,7,0.01116158,12.73418255,0,0,0,0,0,2,2,Trash,E,NA,NA,Trash,DEQ
17007-ORDEQ,Bear Valley Creek at FSR 1235 (2.3 Mi),44.51256362,-121.7448306,Ca,23700715,0.287026023,0.06340149,0,0.700399705,0,0,0,1,1,1,1,1,1,1,Ref_GIS.candidate,W,7.333333333,Score,YES,DEQ
17008-ORDEQ,South Fork Crooked River at Congleton Hollow Road,44.05775465,-120.0419096,BM,23708425,0.990549747,0.232993404,1.465253945,0.176971517,8,0.000943293,0,1,0,0,1,0,0,1,NO,E,NA,NA,NO,DEQ
17010-ORDEQ,Soda Creek upstream of Sparks Lake,44.03505093,-121.7180685,Ca,23701355,0.108501944,0,0,0,0,0,24.49769628,1,1,1,1,1,1,2,Trash,W,1,Score,YES,DEQ
17011-ORDEQ,"North Fork Tumalo Creek, 6.2 miles from gate at Rock Creek",44.06095692,-121.6273463,Ca,23700739,0.134563106,0.149604852,0,0,0,0,0,1,0,1,1,1,1,1,NO,W,NA,NA,NO,DEQ
17012-ORDEQ,Whychus Creek at Perit Huntington Road,44.29079727,-121.5306477,BM,23700305,1.654646347,0.144401726,0.330592468,0.318657684,0,0,9.244141418,0,0,0,1,1,1,2,Trash,E,NA,NA,Trash,DEQ
17015-ORDEQ,Cedar Creek at at River Mile 1.60,45.83539481,-122.9747624,CoRa,23815112,3.78985037,0.515118735,0,2.256810005,0,0,0,0,0,1,0,1,1,1,NO,W,NA,NA,NO,DEQ
17016-ORDEQ,South Fork Winchuck River at River Mile 4.23,41.979889,-124.140472,CoRa,23949495,4.820693631,0.242901212,0,4.350775133,0,0,0,0,0,1,0,1,1,1,NO,W,NA,NA,NO,DEQ
17020-ORDEQ,Gore Creek at River Mile 3.74,42.26047,-122.84748,Ca,23932016,4.577445412,1.867984445,13.05212501,4.434119369,2,0,64.58001965,0,2,0,0,0,1,2,Trash,W,NA,NA,Trash,DEQ
17021-ORDEQ,Clark Creek at River Mile 2.78,42.62413657,-122.6312802,Ca,23923418,3.471548789,0.994454007,0,0,0,0,0,0,0,1,1,1,1,1,NO,W,NA,NA,NO,DEQ
17023-ORDEQ,Beaverdam Branch to Catching Creek at River Mile 0.07,42.97937345,-124.2163524,CoRa,23914519,2.340394461,0.457153306,0,1.440063977,0,0,0,0,0,1,1,1,1,1,NO,W,NA,NA,NO,DEQ
17024-ORDEQ,Tributary to South Fork Coquille near Myrtle Point,43.057467,-124.107233,CoRa,23914523,1.050450783,0,0,2.936083892,0,0,0,1,1,1,0,1,1,1,NO,W,NA,NA,NO,DEQ
17029-ORDEQ,Miner Creek at River Mile 0.22,43.3378,-124.3504296,CoRa,23910659,3.450705975,0,0.03226847,4.583349134,0,0,0,0,1,0,0,1,1,1,NO,W,NA,NA,NO,DEQ
17031-ORDEQ,North Fork Elk River at River Mile 3.3,42.72474686,-124.1584829,CoRa,23920578,1.892575213,0.168964585,0,4.757377523,0,0,0,0,0,1,0,1,1,1,NO,W,NA,NA,NO,DEQ
17048-ORDEQ,Eagle Creek at River Mile 22.76,45.2736718,-122.044058,Ca,23809544,0.001305652,0,0,0,0,0,0,1,1,1,1,1,1,1,Ref_GIS.candidate,W,3,Score,YES,DEQ
17049-ORDEQ,East Fork of Cow Creek at River Mile 0.47,42.80283456,-122.9819798,KlMt,23901365,2.858024922,0.144723036,0,0,0,0,0,0,0,1,1,1,1,1,NO,W,NA,NA,NO,DEQ
17051-ORDEQ,Lake Creek at River Mile 1.68,42.48869371,-123.7449487,KlMt,23945625,0.531896215,0.473619399,0,0.091172617,0,0,0,1,0,1,1,1,1,1,NO,W,NA,NA,NO,DEQ
17054-ORDEQ,West Branch of Elk Creek at River Mile 1.11,42.7031688,-122.7399166,KlMt,23923962,3.31920555,0.552409225,0,0,0,0,0,0,0,1,1,1,1,1,NO,W,NA,NA,NO,DEQ
17055-ORDEQ,Soda Creek at River Mile 1.96,42.33558658,-122.4985545,KlMt,23923108,2.973758389,0.663244326,0,0,0,0,0,0,0,1,1,1,1,1,NO,W,NA,NA,NO,DEQ
17072-ORDEQ,Deer Creek at River Mile 0.76,44.56959174,-123.7783552,CoRa,23882110,3.548406241,0.40163062,0.018073376,4.577717359,0,0,0,0,0,0,0,1,1,1,NO,W,NA,NA,NO,DEQ
17073-ORDEQ,Buck Creek at River Mile 1.40,42.7629276,-123.9383278,CoRa,23916137,1.296812919,0.436929261,0,3.431419236,0,0,0,0,0,1,0,1,1,1,NO,W,NA,NA,NO,DEQ
17090-ORDEQ,North Fork Salmonberry Creek at River Mile 0.80,44.34034762,-123.6836891,CoRa,23886894,3.888824941,0.575407101,0.945757722,5.188840073,0,0,0,0,0,0,0,1,1,1,NO,W,NA,NA,NO,DEQ
17122-ORDEQ,Spout Creek near Harlan,44.55262844,-123.6863367,CoRa,23882154,3.401941713,0.842206581,0.673616889,2.396085274,0,0,0,0,0,0,0,1,1,1,NO,W,NA,NA,NO,DEQ
17123-ORDEQ,Boulder Creek at River Mile 4.69,44.92957373,-123.6281365,CoRa,23880986,3.379408891,0.14852441,0,5.894661732,0,0,0,0,0,1,0,1,1,1,NO,W,NA,NA,NO,DEQ
17124-ORDEQ,Youngs Creek at River Mile 1.11,44.80361764,-123.6832075,CoRa,23881700,2.219588946,0,0,0,0,0,0,0,1,1,1,1,1,1,NO,W,NA,NA,NO,DEQ
17127-ORDEQ,East Fork Millicoma River at River Mile 17.20,43.41994431,-123.8748765,CoRa,23909945,3.510575985,0.843081463,0.002107703,5.354706569,0,0,0,0,0,0,0,1,1,1,NO,W,NA,NA,NO,DEQ
17132-ORDEQ,Willanch Branch Near Coos Bay,43.423083,-124.1205,CoRa,23910427,3.243833322,0,0,9.156338221,0,0,0,0,1,1,0,1,1,1,NO,W,NA,NA,NO,DEQ
17155-ORDEQ,Lousignont Creek upstream of landslide,45.7374518,-123.3511194,CoRa,23872813,2.557039366,0,0,4.397601262,0,0,0,0,1,1,0,1,1,1,NO,W,NA,NA,NO,DEQ
18737-ORDEQ,McCoy Creek Restored (above Transect 3),45.26906775,-118.4199088,BM,23428654,2.702093722,0.430135278,0,0,0,0,0,0,0,1,1,1,1,1,NO,E,NA,NA,NO,DEQ
18783-ORDEQ,Lousignont Creek tributary within landslide,45.72313182,-123.3511774,CoRa,23872823,3.378508458,0.47160913,0,7.782207407,0,0,0,0,0,1,0,1,1,1,NO,W,NA,NA,NO,DEQ
18944-ORDEQ,East Fork Poole Creek,42.92382336,-123.1000834,KlMt,23903315,2.287530054,0.212327749,0,0,0,0,0,0,0,1,1,1,1,1,NO,W,NA,NA,NO,DEQ
20360-ORDEQ,McCoy Creek Restored (Transect 6),45.26886292,-118.42344,BM,23428662,2.666047357,0.405556448,0,0,0,0,0,0,0,1,1,1,1,1,NO,E,NA,NA,NO,DEQ
20363-ORDEQ,Devils Lake Fork Wilson River at mouth,45.60615543,-123.4619145,CoRa,23875985,2.864753454,0.465185922,0,6.261445373,1,0,0,0,0,1,0,0,1,1,NO,W,NA,NA,NO,DEQ
20392-ORDEQ,South Fork Coquille 200 feet downstream of Powers STP,42.88923038,-124.0684157,CoRa,23914567,2.33162379,0.330437254,0.507178185,4.574863057,6,0.004526538,0,0,0,0,0,0,0,1,NO,W,NA,NA,NO,DEQ
20394-ORDEQ,South Fork Coquille 50 feet upstream of Powers STP,42.8885395,-124.0684914,CoRa,23914567,2.331436718,0.330542289,0.507339399,4.572255303,6,0.004527977,0,0,0,0,0,0,0,1,NO,W,NA,NA,NO,DEQ
21629-ORDEQ,Deep Creek at River Mile 4.45,45.39156,-122.36875,WV,23809600,2.941175152,0.557003765,29.65621073,4.666553797,0,0,0,0,0,0,0,1,1,1,NO,W,NA,NA,NO,DEQ
21630-ORDEQ,Deep Creek at River Mile 4.80,45.38845,-122.36375,WV,23809600,2.927268674,0.572368892,29.15802294,4.676286965,0,0,0,0,0,0,0,1,1,1,NO,W,NA,NA,NO,DEQ
21631-ORDEQ,Deep Creek at River Mile 7.97,45.36625377,-122.3161185,WV,23809602,3.006344238,0.617574263,22.97758166,3.949251459,0,0,0,0,0,0,0,1,1,1,NO,W,NA,NA,NO,DEQ
21790-ORDEQ,Elkhorn Creek at River Mile 1.56,44.49956154,-123.9797988,CoRa,23887088,1.56788382,0.136299204,0,3.930750162,0,0,0,0,0,1,0,1,1,1,NO,W,NA,NA,NO,DEQ
21791-ORDEQ,Big Creek at River Mile 0.79,44.17035153,-124.105461,CoRa,23886144,0.9292085,0.105261219,0.025989701,2.645079524,0,0,0,1,1,0,0,1,1,1,NO,W,NA,NA,NO,DEQ
21792-ORDEQ,Montgomery Creek at River Mile 0.91,44.58071488,-123.9297657,CoRa,23882324,1.755609435,0,0,3.304994772,0,0,0,0,1,1,0,1,1,1,NO,W,NA,NA,NO,DEQ
21793-ORDEQ,Middle Creek at River Mile 23.22,43.25682291,-123.8780298,CoRa,NA,3.363449512,0,0,5.686067267,0,0,0,0,1,1,0,1,1,1,NO,W,NA,NA,NO,DEQ
21794-ORDEQ,Sixes River at River Mile 19.22,42.80422527,-124.3061368,CoRa,23920626,1.358917974,0.118498927,0.605297964,2.871729368,3,0.005924946,0,0,0,0,0,0,2,1,Trash,W,NA,NA,Trash,DEQ
21795-ORDEQ,Elk Creek at River Mile 1.38,43.57515893,-123.9352566,CoRa,23910037,3.688112469,0.568084986,0,4.923492686,0,0,0,0,0,1,0,1,1,1,NO,W,NA,NA,NO,DEQ
21796-ORDEQ,Tioga Creek at River Mile 17.74,43.19512118,-123.7560256,CoRa,23909807,3.782778674,0,0.456302902,6.063358592,0,0,0,0,1,0,0,1,1,1,NO,W,NA,NA,NO,DEQ
21797-ORDEQ,Mill Creek at River Mile 1.30,42.97491272,-124.1858384,CoRa,23915921,2.883933823,0,0.038940341,7.179970066,0,0,0,0,1,0,0,1,1,1,NO,W,NA,NA,NO,DEQ
21798-ORDEQ,Redibaugh Creek at River Mile 1.33,43.02718768,-124.3709595,CoRa,23920900,4.29628963,3.004627126,1.153820994,6.274136909,0,0,0,0,2,0,0,1,1,1,Trash,W,NA,NA,Trash,DEQ
21799-ORDEQ,Hall Creek at River Mile 1.48,42.76883662,-124.0297818,CoRa,23916123,1.382771916,2.33426704,0,4.377904328,0,0,0,0,2,1,0,1,1,1,Trash,W,NA,NA,Trash,DEQ
21800-ORDEQ,Nestucca River at River Mile 38.57,45.27839112,-123.5513571,CoRa,23875713,3.460123122,0.350154768,0.000900398,4.37404414,0,0,0,0,0,0,0,1,1,1,NO,W,NA,NA,NO,DEQ
21802-ORDEQ,Little Nestucca River at River Mile 11.56,45.09436513,-123.7860693,CoRa,23875635,4.017189261,0.729968834,0.38008958,6.294415317,0,0,0,0,0,0,0,1,1,1,NO,W,NA,NA,NO,DEQ
21803-ORDEQ,Three Rivers at River Mile 10.10,45.17810708,-123.7559768,CoRa,23876285,1.911333932,0.381013832,0,4.572328121,0,0,0,0,0,1,0,1,1,1,NO,W,NA,NA,NO,DEQ
21804-ORDEQ,Mina Creek at River Mile 1.43,45.22918052,-123.6230647,CoRa,23876885,1.583955943,0.860659265,0,1.576133902,0,0,0,0,0,1,1,1,1,1,NO,W,NA,NA,NO,DEQ
21805-ORDEQ,Tillamook River at River Mile 14.89,45.351602,-123.8314737,CoRa,23875811,4.755045834,0.799552251,4.851294898,4.03012269,0,0,0,0,0,0,0,1,1,1,NO,W,NA,NA,NO,DEQ
21806-ORDEQ,Beaver Creek at River Mile 0.79,45.28478173,-123.8237461,CoRa,23875741,3.386354275,0.681860114,1.585680063,3.812518205,0,0,0,0,0,0,0,1,1,1,NO,W,NA,NA,NO,DEQ
21807-ORDEQ,Necanicum R at LLID RM 10.0,45.91204316,-123.8836482,CoRa,23871165,3.348315091,0.512812999,0.167039486,3.66289834,0,0,0,0,0,0,0,1,1,1,NO,W,NA,NA,NO,DEQ
21808-ORDEQ,Anderson CR at Source,45.76139379,-123.9040681,CoRa,23872985,3.304693182,0,0,4.228436241,0,0,0,0,1,1,0,1,1,1,NO,W,NA,NA,NO,DEQ
21809-ORDEQ,Gravel Creek at River Mile 0.34,45.74778963,-123.8378713,CoRa,23872775,3.505313473,0.442205971,0,7.241850168,0,0,0,0,0,1,0,1,1,1,NO,W,NA,NA,NO,DEQ
21810-ORDEQ,Fishhawk Creek at River Mile 1.07,45.93212947,-123.5069076,CoRa,23872237,2.949675741,0.255515951,2.049058451,3.563043034,2,0.031939494,0,0,0,0,0,0,2,1,Trash,W,NA,NA,Trash,DEQ
21811-ORDEQ,Ben Smith Creek at River Mile 0.44,45.58497307,-123.5160454,CoRa,23876409,2.461939514,0.179733276,0,4.688817993,0,0,0,0,0,1,0,1,1,1,NO,W,NA,NA,NO,DEQ
21812-ORDEQ,Jordan Creek at River Mile 7.52,45.55328672,-123.4898085,CoRa,23875961,2.761794788,0.05554167,0,3.753534954,0,0,0,0,1,1,0,1,1,1,NO,W,NA,NA,NO,DEQ
21813-ORDEQ,Nehalem River Near Timber,45.73746053,-123.2847359,CoRa,23872151,2.326331373,0.339737383,0.439744009,4.324927233,0,0,0,0,0,0,0,1,1,1,NO,W,NA,NA,NO,DEQ
21814-ORDEQ,Chetco River at River Mile 56.09,42.17347778,-123.9117682,KlMt,23949747,0,0,0,0,0,0,0,1,1,1,1,1,1,1,Ref_GIS.candidate,W,1,Score,YES,DEQ
21816-ORDEQ,Thomas Creek at Hwy 226 Bridge,44.7042248,-122.8488416,WV,23786247,3.216775404,0.507875138,14.65648242,0.634497663,3,0,0,0,0,0,1,0,1,1,NO,W,NA,NA,NO,DEQ
21817-ORDEQ,Thomas Creek at Scio Auto Parts,44.70430684,-122.8473863,WV,23786247,3.212243197,0.50481369,14.66092344,0.633017193,3,0,0,0,0,0,1,0,1,1,NO,W,NA,NA,NO,DEQ
21818-ORDEQ,Thomas Creek 300 feet up from Scio Auto,44.704356,-122.845169,WV,23786247,3.211456717,0.504860741,14.66138867,0.632306804,3,0,0,0,0,0,1,0,1,1,NO,W,NA,NA,NO,DEQ
21819-ORDEQ,Lost Creek 8.0 miles on Lost Creek Road,43.82111738,-122.7645634,Ca,23751822,2.937740898,0.365482048,0,0,0,0,0,0,0,1,1,1,1,1,NO,W,NA,NA,NO,DEQ
21820-ORDEQ,Beaver Creek at River Mile 6.44,42.09599919,-122.9845016,KlMt,23936189,2.274326012,0.504620431,0,4.902174652,0,0,0,0,0,1,0,1,1,1,NO,W,NA,NA,NO,DEQ
21821-ORDEQ,"South Fork Salmon River, 5.6 miles on Salmon River Road",45.26878201,-121.941784,Ca,23736455,0.06113498,0,0,0,0,0,0,1,1,1,1,1,1,1,Ref_GIS.candidate,W,4,Score,YES,DEQ
21822-ORDEQ,Obrien Creek at River Mile 0.90,42.1022578,-123.2396556,KlMt,23936367,0.827866501,0.213839706,0,3.139314765,0,0,16.99419244,1,0,1,0,1,1,2,Trash,W,NA,NA,Trash,DEQ
21823-ORDEQ,North Myrtle Creek at River Mile 14.34,43.12152238,-123.1272251,KlMt,23901997,2.991894816,0.294631657,0.010102107,0,0,0,0,0,0,0,1,1,1,1,NO,W,NA,NA,NO,DEQ
21824-ORDEQ,School Hollow Creek at River Mile 1.64,43.05552141,-123.1776869,KlMt,23903093,5.073906896,0,0,2.516862631,0,0,0,2,1,1,0,1,1,1,Trash,W,NA,NA,Trash,DEQ
21825-ORDEQ,South Fork Smith River at River Mile 0.83,43.77402662,-123.4639523,CoRa,24527466,1.777421795,0.364388329,0,2.572070989,0,0,0,0,0,1,0,1,1,1,NO,W,NA,NA,NO,DEQ
21826-ORDEQ,Horse Heaven Creek at River Mile 0.45,43.516349,-122.5892305,Ca,23894644,1.28279235,0,0,0,2,0,0,0,1,1,1,0,1,1,NO,W,NA,NA,NO,DEQ
21827-ORDEQ,Tom Foley Creek at River Mile 0.92,43.68154593,-123.5120849,CoRa,24528308,2.657470422,0.404823285,0,0.912660455,1,0,0,0,0,1,1,0,1,1,NO,W,NA,NA,NO,DEQ
21828-ORDEQ,Dumont Creek at River Mile 4.95,43.09457153,-122.8185312,Ca,23901871,1.504269595,0.107575464,0,0,0,0,0,0,0,1,1,1,1,1,NO,W,NA,NA,NO,DEQ
21830-ORDEQ,Emile Creek tributary at River Mile 0.76,43.24567617,-122.7956161,Ca,23895666,3.136420025,0.357320178,0,0,0,0,0,0,0,1,1,1,1,1,NO,W,NA,NA,NO,DEQ
21831-ORDEQ,Halfway Creek tributary at River Mile 0.29,43.7493144,-123.5845147,CoRa,24528084,3.614877327,0,0,2.456350611,0,0,0,0,1,1,0,1,1,1,NO,W,NA,NA,NO,DEQ
21832-ORDEQ,Soda Fork at River Mile 3.24,44.43700202,-122.252827,Ca,23785889,3.26312578,0.804107267,0,0,0,0,0,0,0,1,1,1,1,1,NO,W,NA,NA,NO,DEQ
21833-ORDEQ,Mohawk River at River Mile 22.13,44.25923283,-122.7347892,Ca,23773571,3.276047282,0.462339711,0.030140652,0,0,0,0,0,0,0,1,1,1,1,NO,W,NA,NA,NO,DEQ
21834-ORDEQ,Roaring River at River Mile 0.10,44.6302194,-122.7393589,WV,23786219,3.648720512,0.439782747,4.010865494,0.159919083,0,0,0,0,0,0,1,1,1,1,NO,W,NA,NA,NO,DEQ
21835-ORDEQ,Dead Horse Creek at River Mile 1.26,44.7839378,-122.1036443,Ca,23781293,2.31180703,0,0,0,0,0,0,0,1,1,1,1,1,1,NO,W,NA,NA,NO,DEQ
21836-ORDEQ,Willamina Creek at River Mile 18.42,45.24280029,-123.4547544,CoRa,23796711,4.516386902,0.797594944,0,6.047100989,0,0,0,0,0,1,0,1,1,1,NO,W,NA,NA,NO,DEQ
21837-ORDEQ,Ash Swale at River Mile 7.30,45.04115179,-123.2288075,WV,23796841,1.134774833,0.342175139,86.9283322,1.773809195,0,0,0,1,0,2,0,1,1,1,Trash,W,NA,NA,Trash,DEQ
21838-ORDEQ,Glenn Creek at River Mile 5.45,44.94748716,-123.1025499,WV,23791469,1.741378789,0.264613268,65.18523245,3.114797851,0,0,0,0,0,2,0,1,1,1,Trash,W,NA,NA,Trash,DEQ
21839-ORDEQ,King Creek at River Mile 0.24,43.7397222,-122.8911548,Ca,23759692,5.146416489,0.895335303,0,0.008659749,0,0,0,2,0,1,1,1,1,1,Trash,W,NA,NA,Trash,DEQ
21840-ORDEQ,Coal Creek tributary at River Mile 2.05,43.465389,-122.461819,Ca,23753830,2.902329285,0.847852813,0,0,0,0,0,0,0,1,1,1,1,1,NO,W,NA,NA,NO,DEQ
21841-ORDEQ,Carpenter Creek at River Mile 1.73,45.508128,-123.125125,WV,23805720,1.647268398,0.47160913,32.39087864,4.019618316,1,0,0,0,0,2,0,0,1,1,Trash,W,NA,NA,Trash,DEQ
21842-ORDEQ,Flynn Creek at River Mile 1.71,44.54013633,-123.8546257,CoRa,23887124,0.227148333,0,0,0.916862118,0,0,0,1,1,1,1,1,1,1,Ref_GIS.candidate,W,1,Score,YES,DEQ
21843-ORDEQ,Dalton Creek at River Mile 0.38,43.27689311,-124.3249883,CoRa,NA,1.599614185,0,0,5.22750261,0,0,0,0,1,1,0,1,1,1,NO,W,NA,NA,NO,DEQ
21844-ORDEQ,South Fork Coquille River tributary at River Mile 0.13,42.79950857,-124.0285235,CoRa,NA,3.348715725,0,0,0,0,0,0,0,1,1,1,1,1,1,NO,W,NA,NA,NO,DEQ
21845-ORDEQ,North Creek at River Mile 0.54,44.90931112,-123.9082353,CoRa,23881390,2.162820682,0,0,5.151245572,0,0,0,0,1,1,0,1,1,1,NO,W,NA,NA,NO,DEQ
21846-ORDEQ,West Fork Ashland Creek at River Mile 0.16,42.14332,-122.7183959,KlMt,23930882,0.68408914,0.116840174,0,2.581640206,0,0,0,1,0,1,0,1,1,1,NO,W,NA,NA,NO,DEQ
21847-ORDEQ,East Fork Winchuck River at River Mile 1.81,42.05099647,-124.0897696,KlMt,23949533,0.493783141,0,0,1.365024165,0,0,0,1,1,1,1,1,1,1,Ref_GIS.candidate,W,7,N,NO,DEQ
21848-ORDEQ,Chrome Creek at River Mile 0.22,42.04548588,-123.9799202,KlMt,22226488,0,0,0,0,0,0,0,1,1,1,1,1,1,1,Ref_GIS.candidate,W,0,Score,YES,DEQ
21849-ORDEQ,Shasta Costa Creek at River Mile 1.11,42.57319062,-124.0350325,KlMt,23940973,0.877022303,0.022729778,0,1.498401933,0,0,0,1,1,1,1,1,1,1,Ref_GIS.candidate,W,20,Score,NO,DEQ
21850-ORDEQ,Sixmile Creek at River Mile 0.10,42.29725917,-123.7309704,KlMt,23945431,1.220689989,0.148411992,0,2.899277486,0,0,0,0,0,1,0,1,1,1,NO,W,NA,NA,NO,DEQ
21851-ORDEQ,Panther Creek at River Mile 0.17,42.38052777,-123.8139835,KlMt,23946171,0.53795902,0,0,1.043118686,0,0,0,1,1,1,1,1,1,1,Ref_GIS.candidate,W,2,Score,YES,DEQ
21852-ORDEQ,Donnegan Creek tributary at River Mile 2.62,42.91188863,-122.640295,Ca,23902751,2.549471708,0.335784561,0,0,0,0,0,0,0,1,1,1,1,1,NO,W,NA,NA,NO,DEQ
21853-ORDEQ,Bull Run River,45.48119892,-121.8891473,Ca,23736079,0.430416179,0.263540705,0,0,0,0,0,1,0,1,1,1,1,1,NO,W,NA,NA,NO,DEQ
21854-ORDEQ,Zig Zag River,45.33843489,-121.9218978,Ca,23735903,0.727822861,0.218900813,0,2.108705985,2,0,0,1,0,1,0,0,1,1,NO,W,NA,NA,NO,DEQ
21855-ORDEQ,Donaca Creek upstream of Swamp Creek crossing,44.51911383,-122.1915693,Ca,23786877,1.035191025,0.100190362,0,0,0,0,0,1,1,1,1,1,1,1,Ref_GIS.candidate,W,14,Score,YES,DEQ
21856-ORDEQ,Crabtree Creek at River Mile 27.0,44.57870028,-122.5698094,Ca,23786203,2.996143461,0.408063972,0,0,0,0,0,0,0,1,1,1,1,1,NO,W,NA,NA,NO,DEQ
21857-ORDEQ,Roney Creek 1 mile up Horse Creek Trail,44.107731,-122.018703,Ca,23774549,0,0,0,0,0,0,0,1,1,1,1,1,1,1,Ref_GIS.candidate,W,0,Score,YES,DEQ
21858-ORDEQ,Lookout Creek at Gypsy Camp,44.22538103,-122.234765,Ca,23773411,1.759916023,0.346788736,0,0,0,0,0,0,0,1,1,1,1,1,NO,W,NA,NA,NO,DEQ
21859-ORDEQ,Marten Creek 2 miles upstream from Gales Creek,44.1085076,-122.5078585,Ca,23772895,2.573807756,0.129929189,0,0,0,0,0,0,0,1,1,1,1,1,NO,W,NA,NA,NO,DEQ
21860-ORDEQ,County Creek at FSR 705/706 junction and rock pile,44.27116929,-122.1071865,Ca,23773907,2.141456857,0.203425689,0,0.797436842,0,0,0,0,0,1,1,1,1,1,NO,W,NA,NA,NO,DEQ
21861-ORDEQ,Sweet Creek at River Mile 1.97,44.00236196,-123.902421,CoRa,23889456,1.377913191,0.200026003,0.276124196,3.651121357,1,0,0,0,0,0,0,0,1,1,NO,W,NA,NA,NO,DEQ
21862-ORDEQ,Wolf Creek at River Mile 2.39,43.96330404,-123.5973994,CoRa,23889670,3.260877498,0.612397482,0.170503032,4.825745745,1,0,0,0,0,0,0,0,1,1,NO,W,NA,NA,NO,DEQ
21863-ORDEQ,Thirsty Creek at River Mile 1.26,43.27836577,-122.1130899,Ca,23894520,0.114082201,0,0,0,0,0,0,1,1,1,1,1,1,1,Ref_GIS.candidate,W,0,Score,YES,DEQ
21864-ORDEQ,Crag Creek upstream of South Fork Breitenbush at trail crossing,44.73862314,-121.8887547,Ca,23781517,0,0,0,0,0,0,0,1,1,1,1,1,1,1,Ref_GIS.candidate,W,1.666666667,Score,YES,DEQ
21865-ORDEQ,Eagle Creek at Wyeast Campsite,45.59506025,-121.8690759,Ca,24504268,0.086002759,0.018713135,0,0,0,0,0,1,1,1,1,1,1,1,Ref_GIS.candidate,W,3.333333333,Score,YES,DEQ
21866-ORDEQ,Canyon Creek downstream of Flimflam Creek,44.37380376,-122.3901614,Ca,23785813,2.301996277,0.262299965,0,0,0,0,0,0,0,1,1,1,1,1,NO,W,NA,NA,NO,DEQ
21867-ORDEQ,Wiley Creek 6.1 miles on Wiley Creek Road,44.32162039,-122.5328541,Ca,23785735,2.445773078,0.282015431,0.105306832,0.130601704,2,0,0,0,0,0,1,0,1,1,NO,W,NA,NA,NO,DEQ
21868-ORDEQ,Battle Creek 3/4 miles on Trail 558,44.847575,-122.071811,Ca,23809612,0,0,0,0,0,0,0,1,1,1,1,1,1,1,Ref_GIS.candidate,W,1,Score,YES,DEQ
21869-ORDEQ,Table Rock Fork downstream of Hunter Creek,44.98764921,-122.2888973,Ca,23800920,2.459231358,0.203381683,0,0,3,0,0,0,0,1,1,0,1,1,NO,W,NA,NA,NO,DEQ
21870-ORDEQ,North Fork Eagle Creek 2 miles upstream of Kitzmiller Road Spur,45.31386231,-122.2523148,Ca,23809552,2.923759015,0.342341186,1.021391888,0.409813512,0,0,0,0,0,0,1,1,1,1,NO,W,NA,NA,NO,DEQ
21871-ORDEQ,Fish Creek 1.4 miles on FSR 5440,45.06403084,-122.1610613,Ca,23809134,0.001375993,0,0,0,0,0,0,1,1,1,1,1,1,1,Ref_GIS.candidate,W,30,Score,NO,DEQ
21872-ORDEQ,Fish Creek 3.0 miles on Fish Creek Road (FSR 54),45.09757084,-122.1678152,Ca,23809128,0.380136305,0.046722149,0,0,1,0,0,1,1,1,1,0,1,1,NO,W,NA,NA,NO,DEQ
21873-ORDEQ,Peat Creek 0.2 miles on FSR 170,44.96808273,-122.0393573,Ca,23810606,1.50373816,1.038098204,0,0,0,0,0,0,0,1,1,1,1,1,NO,W,NA,NA,NO,DEQ
21874-ORDEQ,Table Rock Fork 1.7 miles on Road 7-3E-14,44.98179623,-122.3832257,Ca,23800916,2.144328214,0.16310914,0.052476127,0,4,0,0,0,0,0,1,0,1,1,NO,W,NA,NA,NO,DEQ
21875-ORDEQ,Beaver Creek upstream of Maple Grove Road Crossing,45.03725176,-122.6137311,Ca,23800980,3.323071405,0.985610093,18.49505147,0.450425384,0,0,0,0,0,0,1,1,1,1,NO,W,NA,NA,NO,DEQ
21876-ORDEQ,Cold Springs Creek upstream of Bluegrass Ridge Trail crossing,45.3975252,-121.5898769,Ca,24507192,0,0,0,0,0,0,0,1,1,1,1,1,1,1,Ref_GIS.candidate,W,2,Score,YES,DEQ
21877-ORDEQ,West Fork Hood River northwest of Hwys 10 & 18 junction,45.46454713,-121.7823318,Ca,24504392,1.028217971,0.274446305,0,2.236552392,0,0,0,1,0,1,0,1,1,1,NO,W,NA,NA,NO,DEQ
21878-ORDEQ,Martin Creek 3.2 miles on FSR 23,43.54217608,-122.7188969,Ca,23759498,0.243642184,0,0,0,0,0,0,1,1,1,1,1,1,1,Ref_GIS.candidate,W,14,Score,YES,DEQ
21879-ORDEQ,Saltpeter Creek,43.74271882,-122.6365865,Ca,23759960,2.550120759,1.132342534,0,0,0,0,0,0,0,1,1,1,1,1,NO,W,NA,NA,NO,DEQ
21880-ORDEQ,Brice Creek 12.2 miles on Brice Creek Road,43.62221711,-122.5863013,Ca,23759546,2.393597834,0.239000024,0,0,0,0,0,0,0,1,1,1,1,1,NO,W,NA,NA,NO,DEQ
21881-ORDEQ,Shortridge Creek 2.3 miles on Laduke Road,43.73890061,-122.4857741,Ca,23753434,0.649039213,0,0,0,0,0,0,1,1,1,1,1,1,1,Ref_GIS.candidate,W,7,Score,YES,DEQ
21882-ORDEQ,Eighth Creek at Hwy 19 information sign,43.83507048,-122.394497,Ca,23753220,2.200691922,0.598229241,0,0,0,0,0,0,0,1,1,1,1,1,NO,W,NA,NA,NO,DEQ
21883-ORDEQ,North Fork Winberry Creek 9.5 miles on Winberry Creek Road,43.90113268,-122.608685,Ca,23752624,2.484568537,0.390603639,0,0,0,0,0,0,0,1,1,1,1,1,NO,W,NA,NA,NO,DEQ
21884-ORDEQ,Black Creek upstream of Waldo Wilderness Trailhead,43.69975913,-122.1001074,Ca,23752406,0,0,0,0,0,0,0,1,1,1,1,1,1,1,Ref_GIS.candidate,W,2.333333333,Score,YES,DEQ
21885-ORDEQ,Tumblebug Creek downstream of FSR 2144,43.43745973,-122.2507524,Ca,23752142,1.781654075,0.15475624,0,0,0,0,0,0,0,1,1,1,1,1,NO,W,NA,NA,NO,DEQ
22504-ORDEQ,Elk Creek at mouth (Nestucca),45.28106431,-123.5446016,CoRa,23876155,3.339679506,0.191011021,0,4.509617454,0,0,0,0,0,1,0,1,1,1,NO,W,NA,NA,NO,DEQ
22945-ORDEQ,Marion Creek tributary 0.5 miles up Marion Lake trail,44.571194,-121.877972,Ca,23781769,0,0,0,0,0,0,0,1,1,1,1,1,1,1,Ref_GIS.candidate,W,1,Score,YES,DEQ
22946-ORDEQ,Dickey Creek at 1.0 mile on Bull O'Woods Trail,44.93055077,-122.0538859,Ca,23809250,0.098495026,0.100863391,0,0,0,0,0,1,1,1,1,1,1,1,Ref_GIS.candidate,W,4,Score,YES,DEQ
22947-ORDEQ,South Fork Breitenbush River downstream of Crag Creek,44.74030041,-121.8888377,Ca,23780743,0,0,0,0,0,0,0,1,1,1,1,1,1,1,Ref_GIS.candidate,W,1,Score,YES,DEQ
